[
  {
    "uid": "TPE10",
    "name": "八勢里",
    "lon": 121.459407,
    "lat": 25.150875,
    "routes": [
      "TPE15151",
      "TPE16504",
      "TPE16707",
      "TPE17740"
    ]
  },
  {
    "uid": "TPE1000",
    "name": "內湖國中",
    "lon": 121.5878,
    "lat": 25.076985,
    "routes": [
      "TPE10765",
      "TPE11011"
    ]
  },
  {
    "uid": "TPE1000019",
    "name": "健康新城",
    "lon": 121.562412,
    "lat": 25.054098,
    "routes": [
      "TPE10752",
      "TPE10785",
      "TPE10841",
      "TPE16439",
      "TPE10783"
    ]
  },
  {
    "uid": "TPE1000020",
    "name": "長壽公園",
    "lon": 121.559807,
    "lat": 25.053939,
    "routes": [
      "TPE10752",
      "TPE10785",
      "TPE10841",
      "TPE16439",
      "TPE10783"
    ]
  },
  {
    "uid": "TPE1000021",
    "name": "三軍總醫院松山分院",
    "lon": 121.557567,
    "lat": 25.053776,
    "routes": [
      "TPE10752",
      "TPE10785",
      "TPE10841",
      "TPE16439",
      "TPE10783"
    ]
  },
  {
    "uid": "TPE1000026",
    "name": "民生國中",
    "lon": 121.567809,
    "lat": 25.059925,
    "routes": [
      "TPE10292",
      "TPE10752",
      "TPE10841",
      "TPE10844",
      "TPE10846",
      "TPE10848",
      "TPE11111",
      "TPE15313",
      "TPE16111",
      "TPE19108",
      "TPE10443",
      "TPE10864",
      "TPE10961",
      "TPE10962",
      "TPE15183",
      "TPE15184",
      "TPE16439",
      "TPE19618"
    ]
  },
  {
    "uid": "TPE1000032",
    "name": "萬芳活動中心",
    "lon": 121.568926,
    "lat": 25.002414,
    "routes": [
      "TPE10733",
      "TPE11022",
      "TPE11023",
      "TPE11071",
      "TPE11073",
      "TPE11811",
      "TPE11812",
      "TPE11813",
      "TPE11815",
      "TPE18040",
      "TPE10741"
    ]
  },
  {
    "uid": "TPE1000035",
    "name": "興隆國小",
    "lon": 121.553184,
    "lat": 25.001341,
    "routes": [
      "TPE10711",
      "TPE10733",
      "TPE10735",
      "TPE10742",
      "TPE10743",
      "TPE10749",
      "TPE10782",
      "TPE10791",
      "TPE11763",
      "TPE11811",
      "TPE11813",
      "TPE11815",
      "TPE15161",
      "TPE15164",
      "TPE10736"
    ]
  },
  {
    "uid": "TPE1000036",
    "name": "師大分部",
    "lon": 121.538338,
    "lat": 25.007786,
    "routes": [
      "TPE10326",
      "TPE10328",
      "TPE10332",
      "TPE10333",
      "TPE10711",
      "TPE10712",
      "TPE10721",
      "TPE10734",
      "TPE10735",
      "TPE10736",
      "TPE10743",
      "TPE10746",
      "TPE10752",
      "TPE10792",
      "TPE10848",
      "TPE11221",
      "TPE11763",
      "TPE11764",
      "TPE11811",
      "TPE11813",
      "TPE11815",
      "TPE11833",
      "TPE15161",
      "TPE15164",
      "TPE15191",
      "TPE16439",
      "TPE15512",
      "TPE15515",
      "TPE15546",
      "TPE15657",
      "TPE10334",
      "TPE18228"
    ]
  },
  {
    "uid": "TPE1000037",
    "name": "興隆市場",
    "lon": 121.547675,
    "lat": 24.999609,
    "routes": [
      "TPE10711",
      "TPE10733",
      "TPE10735",
      "TPE10742",
      "TPE10743",
      "TPE10782",
      "TPE11763",
      "TPE11811",
      "TPE11813",
      "TPE11815",
      "TPE15161",
      "TPE15164",
      "TPE10736"
    ]
  },
  {
    "uid": "TPE1000041",
    "name": "萬利街口",
    "lon": 121.566746,
    "lat": 24.998899,
    "routes": [
      "TPE10733",
      "TPE10742",
      "TPE11811",
      "TPE11813",
      "TPE11815",
      "TPE17944"
    ]
  },
  {
    "uid": "TPE1000044",
    "name": "羅斯福金門街口",
    "lon": 121.524557,
    "lat": 25.024156,
    "routes": [
      "TPE10326",
      "TPE10333",
      "TPE10711",
      "TPE10712",
      "TPE10721",
      "TPE10723",
      "TPE10746",
      "TPE10752",
      "TPE10783",
      "TPE11041",
      "TPE11815",
      "TPE11833",
      "TPE15112",
      "TPE15191",
      "TPE16157",
      "TPE16439",
      "TPE10785",
      "TPE17363"
    ]
  },
  {
    "uid": "TPE1000045",
    "name": "公館",
    "lon": 121.538413,
    "lat": 25.012266,
    "routes": [
      "TPE10334",
      "TPE10723",
      "TPE10724",
      "TPE10751",
      "TPE10782",
      "TPE10783",
      "TPE11022",
      "TPE15698",
      "TPE16747",
      "TPE17020",
      "TPE17928",
      "TPE18228",
      "TPE10785",
      "TPE11834",
      "TPE15572",
      "TPE16169"
    ]
  },
  {
    "uid": "TPE1000046",
    "name": "臺灣科技大學",
    "lon": 121.540299,
    "lat": 25.013775,
    "routes": [
      "TPE10334",
      "TPE10723",
      "TPE10724",
      "TPE10751",
      "TPE10782",
      "TPE10783",
      "TPE11022",
      "TPE15698",
      "TPE16747",
      "TPE17020",
      "TPE17928",
      "TPE18228",
      "TPE10785",
      "TPE11834",
      "TPE15572",
      "TPE16169"
    ]
  },
  {
    "uid": "TPE1000050",
    "name": "捷運古亭站(羅斯福)",
    "lon": 121.522418,
    "lat": 25.027084,
    "routes": [
      "TPE10326",
      "TPE10333",
      "TPE10711",
      "TPE10712",
      "TPE10721",
      "TPE10723",
      "TPE10746",
      "TPE11041",
      "TPE15112",
      "TPE15191",
      "TPE16157"
    ]
  },
  {
    "uid": "TPE1000052",
    "name": "承德路口",
    "lon": 121.518809,
    "lat": 25.068454,
    "routes": [
      "TPE11157",
      "TPE15381"
    ]
  },
  {
    "uid": "TPE1000056",
    "name": "捷運大安森林公園站",
    "lon": 121.53567,
    "lat": 25.03354,
    "routes": [
      "TPE10832",
      "TPE10841",
      "TPE10862",
      "TPE10873",
      "TPE10971",
      "TPE11212",
      "TPE15708",
      "TPE16706",
      "TPE17869",
      "TPE11245",
      "TPE17800"
    ]
  },
  {
    "uid": "TPE1000058",
    "name": "自強街口",
    "lon": 121.514584,
    "lat": 25.007558,
    "routes": [
      "TPE11861",
      "TPE15521",
      "TPE15553",
      "TPE15554",
      "TPE15562"
    ]
  },
  {
    "uid": "TPE1000064",
    "name": "中山市場",
    "lon": 121.522051,
    "lat": 25.050892,
    "routes": [
      "TPE10414",
      "TPE10415",
      "TPE10423",
      "TPE10823",
      "TPE10824",
      "TPE10844",
      "TPE10851",
      "TPE11156",
      "TPE11157",
      "TPE11861",
      "TPE15353",
      "TPE15373",
      "TPE15521",
      "TPE16111",
      "TPE16112",
      "TPE16746",
      "TPE19108",
      "TPE15516"
    ]
  },
  {
    "uid": "TPE1000066",
    "name": "民族重慶路口",
    "lon": 121.513913,
    "lat": 25.068612,
    "routes": [
      "TPE10262",
      "TPE10882",
      "TPE11124",
      "TPE11125",
      "TPE11165",
      "TPE11881",
      "TPE15333",
      "TPE15532",
      "TPE15554",
      "TPE16707",
      "TPE11871",
      "TPE10473",
      "TPE10853",
      "TPE15322",
      "TPE15381"
    ]
  },
  {
    "uid": "TPE1000072",
    "name": "大龍峒保安宮",
    "lon": 121.515539,
    "lat": 25.072023,
    "routes": [
      "TPE10261",
      "TPE10262",
      "TPE10882",
      "TPE11165",
      "TPE11871",
      "TPE15322",
      "TPE15381"
    ]
  },
  {
    "uid": "TPE1000074",
    "name": "民生社區活動中心",
    "lon": 121.561036,
    "lat": 25.058725,
    "routes": [
      "TPE10291",
      "TPE10293",
      "TPE10443",
      "TPE10783",
      "TPE10844",
      "TPE10847",
      "TPE10848",
      "TPE10864",
      "TPE10961",
      "TPE10962",
      "TPE11093",
      "TPE15183",
      "TPE15184",
      "TPE15313",
      "TPE10785"
    ]
  },
  {
    "uid": "TPE1000075",
    "name": "聯合二村",
    "lon": 121.55907,
    "lat": 25.058563,
    "routes": [
      "TPE10291",
      "TPE10293",
      "TPE10443",
      "TPE10783",
      "TPE10844",
      "TPE10847",
      "TPE10848",
      "TPE10864",
      "TPE10961",
      "TPE10962",
      "TPE11093",
      "TPE15183",
      "TPE15184",
      "TPE15313",
      "TPE10785"
    ]
  },
  {
    "uid": "TPE1000077",
    "name": "捷運北門站",
    "lon": 121.510359,
    "lat": 25.049621,
    "routes": [
      "TPE10423",
      "TPE10722",
      "TPE10864",
      "TPE10882",
      "TPE11125",
      "TPE15191",
      "TPE15333",
      "TPE15553",
      "TPE15554",
      "TPE17556",
      "TPE18015",
      "TPE11252",
      "TPE16707",
      "TPE17801",
      "TPE10823",
      "TPE11124",
      "TPE11156",
      "TPE11157",
      "TPE11881",
      "TPE15142",
      "TPE15372",
      "TPE15532",
      "TPE16112",
      "TPE16504",
      "TPE19688",
      "TPE19759"
    ]
  },
  {
    "uid": "TPE1000078",
    "name": "中華路北站",
    "lon": 121.509202,
    "lat": 25.045361,
    "routes": [
      "TPE10181",
      "TPE10735",
      "TPE10746",
      "TPE10823",
      "TPE10864",
      "TPE10911",
      "TPE10912",
      "TPE10961",
      "TPE10962",
      "TPE11124",
      "TPE11241",
      "TPE11881",
      "TPE15111",
      "TPE15185",
      "TPE15191",
      "TPE15333",
      "TPE15372",
      "TPE15373",
      "TPE15381",
      "TPE15553",
      "TPE15554",
      "TPE16111",
      "TPE16112",
      "TPE16121",
      "TPE16132",
      "TPE18015",
      "TPE19108",
      "TPE19688",
      "TPE10132",
      "TPE10415",
      "TPE10416",
      "TPE10481",
      "TPE10482",
      "TPE10722",
      "TPE10882",
      "TPE11125",
      "TPE11156",
      "TPE11157",
      "TPE11171",
      "TPE11831",
      "TPE16131",
      "TPE17556",
      "TPE10736",
      "TPE10771",
      "TPE15532"
    ]
  },
  {
    "uid": "TPE1000079",
    "name": "捷運西門站",
    "lon": 121.508165,
    "lat": 25.04171,
    "routes": [
      "TPE10181",
      "TPE10735",
      "TPE10746",
      "TPE10823",
      "TPE10864",
      "TPE10911",
      "TPE10912",
      "TPE10961",
      "TPE10962",
      "TPE11124",
      "TPE11241",
      "TPE11881",
      "TPE15111",
      "TPE15185",
      "TPE15191",
      "TPE15333",
      "TPE15372",
      "TPE15373",
      "TPE15381",
      "TPE15553",
      "TPE15554",
      "TPE16111",
      "TPE16112",
      "TPE16121",
      "TPE16132",
      "TPE17800",
      "TPE18015",
      "TPE19108",
      "TPE19688",
      "TPE10736",
      "TPE10771",
      "TPE10882",
      "TPE11125",
      "TPE11156",
      "TPE11157",
      "TPE15532",
      "TPE17556",
      "TPE10132",
      "TPE10481",
      "TPE10482",
      "TPE10722",
      "TPE10873",
      "TPE10932",
      "TPE11171",
      "TPE11831",
      "TPE16122",
      "TPE16131",
      "TPE10416",
      "TPE11421",
      "TPE11841"
    ]
  },
  {
    "uid": "TPE1000080",
    "name": "小南門",
    "lon": 121.507028,
    "lat": 25.03803,
    "routes": [
      "TPE10181",
      "TPE10735",
      "TPE10823",
      "TPE10864",
      "TPE10911",
      "TPE10912",
      "TPE11124",
      "TPE15111",
      "TPE15185",
      "TPE15333",
      "TPE15373",
      "TPE15381",
      "TPE16111",
      "TPE16121",
      "TPE16132",
      "TPE17800",
      "TPE18015",
      "TPE19108",
      "TPE10132",
      "TPE10481",
      "TPE10482",
      "TPE10722",
      "TPE10873",
      "TPE10882",
      "TPE10932",
      "TPE11125",
      "TPE11156",
      "TPE11157",
      "TPE11171",
      "TPE11881",
      "TPE16112",
      "TPE16122",
      "TPE16131",
      "TPE19688"
    ]
  },
  {
    "uid": "TPE1000081",
    "name": "菜寮(重陽路)",
    "lon": 121.486658,
    "lat": 25.057864,
    "routes": [
      "TPE10416",
      "TPE10417",
      "TPE10891",
      "TPE11231",
      "TPE11241",
      "TPE11246",
      "TPE15521",
      "TPE15522",
      "TPE16158"
    ]
  },
  {
    "uid": "TPE1000082",
    "name": "臺北車站(忠孝)",
    "lon": 121.515676,
    "lat": 25.046745,
    "routes": [
      "TPE10181",
      "TPE10415",
      "TPE10416",
      "TPE10481",
      "TPE10482",
      "TPE10735",
      "TPE10823",
      "TPE10824",
      "TPE10832",
      "TPE10851",
      "TPE10911",
      "TPE10912",
      "TPE10942",
      "TPE10961",
      "TPE10962",
      "TPE11156",
      "TPE11157",
      "TPE11171",
      "TPE11812",
      "TPE11831",
      "TPE11851",
      "TPE15111",
      "TPE15185",
      "TPE15353",
      "TPE15373",
      "TPE15381",
      "TPE15514",
      "TPE15518",
      "TPE16111",
      "TPE16112",
      "TPE16121",
      "TPE16131",
      "TPE16132",
      "TPE17800",
      "TPE17801",
      "TPE19108",
      "TPE19688",
      "TPE10417",
      "TPE10471",
      "TPE10844",
      "TPE10891",
      "TPE11243",
      "TPE11411",
      "TPE15664",
      "TPE10893",
      "TPE15571",
      "TPE19755",
      "TPE10736",
      "TPE10841",
      "TPE15516",
      "TPE18708",
      "TPE10726"
    ]
  },
  {
    "uid": "TPE1000083",
    "name": "中山藝術公園",
    "lon": 121.49241,
    "lat": 25.060487,
    "routes": [
      "TPE10417",
      "TPE10472",
      "TPE10891",
      "TPE11241",
      "TPE11246",
      "TPE15521",
      "TPE15581",
      "TPE16158",
      "TPE10415"
    ]
  },
  {
    "uid": "TPE1000086",
    "name": "崩山",
    "lon": 121.623668,
    "lat": 25.014467,
    "routes": [
      "TPE16127"
    ]
  },
  {
    "uid": "TPE1000087",
    "name": "臺大醫院",
    "lon": 121.51851,
    "lat": 25.041965,
    "routes": [
      "TPE10414",
      "TPE10471",
      "TPE10832",
      "TPE11812",
      "TPE15112",
      "TPE15521",
      "TPE10262",
      "TPE10326",
      "TPE10726",
      "TPE10842",
      "TPE10971",
      "TPE11091",
      "TPE15708",
      "TPE17869"
    ]
  },
  {
    "uid": "TPE1000088",
    "name": "和平東路4段",
    "lon": 121.570685,
    "lat": 25.004588,
    "routes": [
      "TPE10741",
      "TPE10742",
      "TPE11021",
      "TPE15162",
      "TPE15172",
      "TPE17020"
    ]
  },
  {
    "uid": "TPE1000089",
    "name": "萬寧街",
    "lon": 121.570562,
    "lat": 25.003162,
    "routes": [
      "TPE10741",
      "TPE10742",
      "TPE11021",
      "TPE11812"
    ]
  },
  {
    "uid": "TPE1000093",
    "name": "萬美社區",
    "lon": 121.562837,
    "lat": 25.003461,
    "routes": [
      "TPE11022",
      "TPE10742",
      "TPE11021",
      "TPE11812",
      "TPE10741"
    ]
  },
  {
    "uid": "TPE1000096",
    "name": "華江派出所",
    "lon": 121.493178,
    "lat": 25.03406,
    "routes": [
      "TPE10723",
      "TPE10724",
      "TPE10725",
      "TPE10726",
      "TPE10862",
      "TPE17928"
    ]
  },
  {
    "uid": "TPE10001",
    "name": "連城中和路口",
    "lon": 121.498651,
    "lat": 25.002083,
    "routes": [
      "TPE15561",
      "TPE15562",
      "TPE15563",
      "TPE15685",
      "TPE15687",
      "TPE15694",
      "TPE15698",
      "TPE17390",
      "TPE17512"
    ]
  },
  {
    "uid": "TPE1000105",
    "name": "金湖路口",
    "lon": 121.604483,
    "lat": 25.073485,
    "routes": [
      "TPE10251",
      "TPE10764",
      "TPE10765",
      "TPE10853",
      "TPE15355"
    ]
  },
  {
    "uid": "TPE1000107",
    "name": "捷運信義安和站(信義)",
    "lon": 121.552038,
    "lat": 25.033202,
    "routes": [
      "TPE10832",
      "TPE10873",
      "TPE10971",
      "TPE11245",
      "TPE11246",
      "TPE11821",
      "TPE15708",
      "TPE16158",
      "TPE16706",
      "TPE17869"
    ]
  },
  {
    "uid": "TPE1000108",
    "name": "臺北郵局",
    "lon": 121.511294,
    "lat": 25.046765,
    "routes": [
      "TPE10416",
      "TPE10726",
      "TPE10832",
      "TPE10851",
      "TPE10942",
      "TPE10961",
      "TPE10962",
      "TPE11421",
      "TPE11812",
      "TPE11831",
      "TPE11851",
      "TPE15353"
    ]
  },
  {
    "uid": "TPE1000109",
    "name": "捷運大安站(信義)",
    "lon": 121.543548,
    "lat": 25.03339,
    "routes": [
      "TPE10832",
      "TPE10841",
      "TPE10873",
      "TPE10971",
      "TPE11245",
      "TPE15708",
      "TPE16706",
      "TPE17800",
      "TPE17869",
      "TPE11871"
    ]
  },
  {
    "uid": "TPE1000111",
    "name": "大南路口",
    "lon": 121.522039,
    "lat": 25.088704,
    "routes": [
      "TPE11157",
      "TPE11165",
      "TPE11203",
      "TPE16504",
      "TPE17561",
      "TPE11204",
      "TPE15333",
      "TPE15335",
      "TPE10221",
      "TPE10421"
    ]
  },
  {
    "uid": "TPE1000112",
    "name": "民權吉林路口",
    "lon": 121.529606,
    "lat": 25.062591,
    "routes": [
      "TPE10231",
      "TPE10422",
      "TPE10431",
      "TPE10443",
      "TPE10811",
      "TPE10847",
      "TPE10874",
      "TPE11011",
      "TPE11093",
      "TPE11203",
      "TPE11813",
      "TPE11871",
      "TPE15314",
      "TPE15391",
      "TPE15546",
      "TPE15657",
      "TPE15683",
      "TPE16128",
      "TPE17952",
      "TPE810",
      "TPE11245",
      "TPE11815"
    ]
  },
  {
    "uid": "TPE1000114",
    "name": "圓山皇宮大廈",
    "lon": 121.523461,
    "lat": 25.083412,
    "routes": [
      "TPE10221",
      "TPE11152",
      "TPE11161",
      "TPE11165",
      "TPE11203",
      "TPE11871",
      "TPE15546",
      "TPE15553",
      "TPE15573",
      "TPE15581",
      "TPE16504",
      "TPE11157"
    ]
  },
  {
    "uid": "TPE1000115",
    "name": "陽明高中",
    "lon": 121.518029,
    "lat": 25.09203,
    "routes": [
      "TPE10263",
      "TPE10421",
      "TPE10441",
      "TPE10442",
      "TPE11124",
      "TPE11125",
      "TPE11201",
      "TPE11202",
      "TPE11203",
      "TPE11204",
      "TPE11252",
      "TPE11881",
      "TPE15321",
      "TPE15331",
      "TPE15333",
      "TPE15334",
      "TPE15372",
      "TPE15532",
      "TPE15541",
      "TPE15551",
      "TPE15554",
      "TPE16164",
      "TPE17436",
      "TPE17740",
      "TPE17993",
      "TPE18039",
      "TPE19717",
      "TPE19720"
    ]
  },
  {
    "uid": "TPE1000117",
    "name": "捷運劍南路站",
    "lon": 121.55497,
    "lat": 25.085072,
    "routes": [
      "TPE10432",
      "TPE10765",
      "TPE10842",
      "TPE10846",
      "TPE10851",
      "TPE10853",
      "TPE11821",
      "TPE15112",
      "TPE15141",
      "TPE15142",
      "TPE15143",
      "TPE15171",
      "TPE15172",
      "TPE15312",
      "TPE15331",
      "TPE15332",
      "TPE15334",
      "TPE15335",
      "TPE15352",
      "TPE15353",
      "TPE15358",
      "TPE15359",
      "TPE15361",
      "TPE15362",
      "TPE15680",
      "TPE15681",
      "TPE15695",
      "TPE15696",
      "TPE16559",
      "TPE17436",
      "TPE17740",
      "TPE18044",
      "TPE16174"
    ]
  },
  {
    "uid": "TPE1000123",
    "name": "五分埔商圈(中坡北)",
    "lon": 121.5804,
    "lat": 25.047611,
    "routes": [
      "TPE10856",
      "TPE11066",
      "TPE11221",
      "TPE19448"
    ]
  },
  {
    "uid": "TPE1000126",
    "name": "捷運大直站",
    "lon": 121.547063,
    "lat": 25.08007,
    "routes": [
      "TPE10765",
      "TPE10842",
      "TPE10846",
      "TPE10851",
      "TPE10853",
      "TPE11251",
      "TPE11821",
      "TPE15112",
      "TPE15142",
      "TPE15171",
      "TPE15172",
      "TPE15312",
      "TPE15331",
      "TPE15332",
      "TPE15353",
      "TPE15358",
      "TPE15362",
      "TPE15695",
      "TPE16157",
      "TPE16184",
      "TPE16559",
      "TPE17436",
      "TPE15141",
      "TPE15143",
      "TPE15696"
    ]
  },
  {
    "uid": "TPE1000127",
    "name": "美麗華",
    "lon": 121.558158,
    "lat": 25.084678,
    "routes": [
      "TPE10432",
      "TPE10765",
      "TPE10842",
      "TPE10846",
      "TPE10851",
      "TPE10853",
      "TPE11821",
      "TPE15112",
      "TPE15141",
      "TPE15142",
      "TPE15143",
      "TPE15171",
      "TPE15172",
      "TPE15312",
      "TPE15332",
      "TPE15334",
      "TPE15335",
      "TPE15352",
      "TPE15353",
      "TPE15358",
      "TPE15359",
      "TPE15361",
      "TPE15362",
      "TPE15696",
      "TPE16125",
      "TPE16559",
      "TPE17740",
      "TPE18044",
      "TPE15695",
      "TPE17709"
    ]
  },
  {
    "uid": "TPE1000128",
    "name": "民權東路口",
    "lon": 121.550809,
    "lat": 25.061519,
    "routes": [
      "TPE11821",
      "TPE11834",
      "TPE810",
      "TPE10231",
      "TPE10422",
      "TPE10431",
      "TPE10763",
      "TPE10861",
      "TPE11011",
      "TPE15171",
      "TPE15172",
      "TPE15561",
      "TPE15683",
      "TPE16166",
      "TPE17952"
    ]
  },
  {
    "uid": "TPE1000138",
    "name": "仁愛大安路口(仁愛醫院)",
    "lon": 121.545738,
    "lat": 25.03784,
    "routes": [
      "TPE10861",
      "TPE10932",
      "TPE11091",
      "TPE11841",
      "TPE15563",
      "TPE16122",
      "TPE19408"
    ]
  },
  {
    "uid": "TPE1000142",
    "name": "信義國中(莊敬)",
    "lon": 121.565467,
    "lat": 25.027504,
    "routes": [
      "TPE10723",
      "TPE10831",
      "TPE10832",
      "TPE11091",
      "TPE11152",
      "TPE11165",
      "TPE11245",
      "TPE11821"
    ]
  },
  {
    "uid": "TPE1000147",
    "name": "美美新村",
    "lon": 121.484216,
    "lat": 25.081131,
    "routes": [
      "TPE11241",
      "TPE11243",
      "TPE15664"
    ]
  },
  {
    "uid": "TPE1000148",
    "name": "長壽西街口",
    "lon": 121.496458,
    "lat": 25.067053,
    "routes": [
      "TPE10414",
      "TPE10415",
      "TPE10417",
      "TPE10473",
      "TPE11232",
      "TPE11243",
      "TPE15664"
    ]
  },
  {
    "uid": "TPE10001482",
    "name": "華泰新城(宜安路)",
    "lon": 121.508961,
    "lat": 24.998895,
    "routes": [
      "TPE11861",
      "TPE15561",
      "TPE15563",
      "TPE15694",
      "TPE17512"
    ]
  },
  {
    "uid": "TPE10001486",
    "name": "振興公園",
    "lon": 121.52352,
    "lat": 25.11876,
    "routes": [
      "TPE10461",
      "TPE10462",
      "TPE11815",
      "TPE15171",
      "TPE15341",
      "TPE15531",
      "TPE810"
    ]
  },
  {
    "uid": "TPE1000149",
    "name": "大同路口",
    "lon": 121.494592,
    "lat": 25.061447,
    "routes": [
      "TPE10221",
      "TPE10417",
      "TPE10422",
      "TPE10452",
      "TPE10472",
      "TPE11241",
      "TPE11243",
      "TPE11246",
      "TPE15521",
      "TPE15522",
      "TPE15581",
      "TPE15664",
      "TPE15689",
      "TPE16158",
      "TPE17952",
      "TPE10415"
    ]
  },
  {
    "uid": "TPE1000150",
    "name": "正義重新路口",
    "lon": 121.497531,
    "lat": 25.063319,
    "routes": [
      "TPE10414",
      "TPE10415",
      "TPE10417",
      "TPE10473",
      "TPE11232",
      "TPE11241",
      "TPE11243",
      "TPE15664"
    ]
  },
  {
    "uid": "TPE1000151",
    "name": "忠孝路口",
    "lon": 121.487361,
    "lat": 25.06953,
    "routes": [
      "TPE10415",
      "TPE11243",
      "TPE15664",
      "TPE10416"
    ]
  },
  {
    "uid": "TPE1000152",
    "name": "舊莊",
    "lon": 121.62276,
    "lat": 25.03823,
    "routes": [
      "TPE10461",
      "TPE10473",
      "TPE11851",
      "TPE11853",
      "TPE10911",
      "TPE10912",
      "TPE11059",
      "TPE11061",
      "TPE11854",
      "TPE16132"
    ]
  },
  {
    "uid": "TPE1000155",
    "name": "台泥大樓(馬偕醫院)",
    "lon": 121.522905,
    "lat": 25.061206,
    "routes": [
      "TPE10414",
      "TPE10415",
      "TPE10823",
      "TPE10824",
      "TPE10851",
      "TPE11156",
      "TPE11157",
      "TPE11242",
      "TPE15142",
      "TPE15353",
      "TPE15373",
      "TPE15521",
      "TPE16112",
      "TPE16746"
    ]
  },
  {
    "uid": "TPE1000156",
    "name": "國賓飯店",
    "lon": 121.522799,
    "lat": 25.056335,
    "routes": [
      "TPE10414",
      "TPE10415",
      "TPE10823",
      "TPE10824",
      "TPE10851",
      "TPE11156",
      "TPE11157",
      "TPE15353",
      "TPE15373",
      "TPE15521",
      "TPE16112",
      "TPE16746"
    ]
  },
  {
    "uid": "TPE1000160",
    "name": "後港里",
    "lon": 121.518191,
    "lat": 25.089077,
    "routes": [
      "TPE11161",
      "TPE15333",
      "TPE15335",
      "TPE15573"
    ]
  },
  {
    "uid": "TPE1000161",
    "name": "福港街",
    "lon": 121.517861,
    "lat": 25.090808,
    "routes": [
      "TPE11157",
      "TPE15333",
      "TPE15335",
      "TPE16504",
      "TPE11161",
      "TPE11165",
      "TPE11203",
      "TPE15573",
      "TPE17561"
    ]
  },
  {
    "uid": "TPE1000163",
    "name": "長安東路二段",
    "lon": 121.533609,
    "lat": 25.048814,
    "routes": [
      "TPE10785",
      "TPE15512",
      "TPE15515",
      "TPE10792",
      "TPE15111",
      "TPE15185",
      "TPE11871",
      "TPE15314"
    ]
  },
  {
    "uid": "TPE1000164",
    "name": "中山女高",
    "lon": 121.537034,
    "lat": 25.048865,
    "routes": [
      "TPE15111",
      "TPE10181",
      "TPE10792",
      "TPE10942",
      "TPE11871",
      "TPE15314",
      "TPE11023",
      "TPE17022",
      "TPE15185"
    ]
  },
  {
    "uid": "TPE1000169",
    "name": "明倫高中",
    "lon": 121.519563,
    "lat": 25.073845,
    "routes": [
      "TPE10221",
      "TPE11152",
      "TPE11165",
      "TPE11203",
      "TPE11871",
      "TPE15546",
      "TPE15553",
      "TPE15581",
      "TPE16504",
      "TPE10472",
      "TPE11157"
    ]
  },
  {
    "uid": "TPE1000170",
    "name": "捷運劍潭站(北藝中心)",
    "lon": 121.52489,
    "lat": 25.0849,
    "routes": [
      "TPE10221",
      "TPE10272",
      "TPE10273",
      "TPE10421",
      "TPE10472",
      "TPE11152",
      "TPE11161",
      "TPE11871",
      "TPE15546",
      "TPE15553",
      "TPE15573",
      "TPE15581",
      "TPE16112",
      "TPE19028",
      "TPE10821",
      "TPE10874",
      "TPE11156",
      "TPE11201",
      "TPE11202",
      "TPE11204",
      "TPE11206",
      "TPE11207",
      "TPE11208",
      "TPE11209",
      "TPE11211",
      "TPE11213",
      "TPE11217",
      "TPE15151",
      "TPE15172",
      "TPE15321",
      "TPE15331",
      "TPE15551",
      "TPE15682",
      "TPE15696",
      "TPE16746",
      "TPE17436",
      "TPE17561",
      "TPE17993",
      "TPE19408"
    ]
  },
  {
    "uid": "TPE1000171",
    "name": "公教住宅",
    "lon": 121.537344,
    "lat": 25.074323,
    "routes": [
      "TPE11161",
      "TPE11871",
      "TPE15333",
      "TPE15551",
      "TPE17561",
      "TPE10291",
      "TPE10293",
      "TPE10443",
      "TPE10783",
      "TPE10847",
      "TPE10848",
      "TPE10864",
      "TPE10961",
      "TPE10962",
      "TPE11093",
      "TPE15183",
      "TPE15184",
      "TPE15313",
      "TPE10785",
      "TPE10272",
      "TPE10273",
      "TPE10421",
      "TPE15335"
    ]
  },
  {
    "uid": "TPE1000175",
    "name": "圓山新城一",
    "lon": 121.540087,
    "lat": 25.082444,
    "routes": [
      "TPE11251",
      "TPE15142",
      "TPE16559"
    ]
  },
  {
    "uid": "TPE1000178",
    "name": "後車站",
    "lon": 121.514098,
    "lat": 25.050718,
    "routes": [
      "TPE10262",
      "TPE10423",
      "TPE10792",
      "TPE10847",
      "TPE15142",
      "TPE15322",
      "TPE15532",
      "TPE10452",
      "TPE11124",
      "TPE11252",
      "TPE11881",
      "TPE15333",
      "TPE15516",
      "TPE15554",
      "TPE16707",
      "TPE10251",
      "TPE10864",
      "TPE10872",
      "TPE15162",
      "TPE15513"
    ]
  },
  {
    "uid": "TPE1000179",
    "name": "大道路",
    "lon": 121.582716,
    "lat": 25.04024,
    "routes": [
      "TPE10872",
      "TPE11821"
    ]
  },
  {
    "uid": "TPE1000180",
    "name": "忠孝大道路口",
    "lon": 121.581585,
    "lat": 25.04243,
    "routes": [
      "TPE10872",
      "TPE11821"
    ]
  },
  {
    "uid": "TPE1000181",
    "name": "國民住宅",
    "lon": 121.573966,
    "lat": 25.045582,
    "routes": [
      "TPE10872",
      "TPE10874",
      "TPE10912",
      "TPE10942",
      "TPE11411",
      "TPE15391"
    ]
  },
  {
    "uid": "TPE1000183",
    "name": "台北銀行",
    "lon": 121.530053,
    "lat": 25.056343,
    "routes": [
      "TPE15711"
    ]
  },
  {
    "uid": "TPE1000184",
    "name": "民權龍江路口",
    "lon": 121.540915,
    "lat": 25.062361,
    "routes": [
      "TPE10231",
      "TPE10332",
      "TPE10422",
      "TPE10431",
      "TPE10443",
      "TPE10811",
      "TPE10847",
      "TPE11011",
      "TPE11831",
      "TPE11833",
      "TPE11834",
      "TPE11861",
      "TPE15561",
      "TPE15562",
      "TPE15683",
      "TPE16128",
      "TPE17952",
      "TPE810",
      "TPE16166"
    ]
  },
  {
    "uid": "TPE1000192",
    "name": "青潭(新烏)",
    "lon": 121.546625,
    "lat": 24.951253,
    "routes": [
      "TPE10332",
      "TPE10333"
    ]
  },
  {
    "uid": "TPE1000194",
    "name": "長安國小(吉林)",
    "lon": 121.529999,
    "lat": 25.050414,
    "routes": [
      "TPE10792",
      "TPE15711"
    ]
  },
  {
    "uid": "TPE1000195",
    "name": "南京東路口",
    "lon": 121.530156,
    "lat": 25.051132,
    "routes": [
      "TPE10792",
      "TPE15711"
    ]
  },
  {
    "uid": "TPE1000201",
    "name": "五分埤",
    "lon": 121.621188,
    "lat": 25.076168,
    "routes": [
      "TPE10763",
      "TPE10765",
      "TPE10767",
      "TPE10851",
      "TPE10853",
      "TPE10856",
      "TPE10861",
      "TPE11051",
      "TPE11062",
      "TPE16153"
    ]
  },
  {
    "uid": "TPE1000203",
    "name": "康樂街",
    "lon": 121.619167,
    "lat": 25.071157,
    "routes": [
      "TPE10763",
      "TPE10765",
      "TPE10767",
      "TPE10851",
      "TPE10853",
      "TPE10856",
      "TPE10861",
      "TPE11051",
      "TPE11062",
      "TPE16153",
      "TPE16506"
    ]
  },
  {
    "uid": "TPE1000204",
    "name": "內湖焚化廠(安康)",
    "lon": 121.603124,
    "lat": 25.06309,
    "routes": [
      "TPE10764",
      "TPE10767",
      "TPE15355",
      "TPE15358",
      "TPE15391"
    ]
  },
  {
    "uid": "TPE1000205",
    "name": "內湖焚化廠(葫蘆洲公園)",
    "lon": 121.603466,
    "lat": 25.062478,
    "routes": [
      "TPE10764",
      "TPE10767",
      "TPE15353",
      "TPE15355",
      "TPE15358",
      "TPE15359",
      "TPE15391"
    ]
  },
  {
    "uid": "TPE1000206",
    "name": "南松山(南京)",
    "lon": 121.568936,
    "lat": 25.051315,
    "routes": [
      "TPE10473",
      "TPE10767",
      "TPE11212",
      "TPE11853",
      "TPE15513",
      "TPE15515",
      "TPE16111",
      "TPE19618"
    ]
  },
  {
    "uid": "TPE1000209",
    "name": "捷運東湖站(南湖高中)",
    "lon": 121.611497,
    "lat": 25.067182,
    "routes": [
      "TPE10231",
      "TPE10251",
      "TPE10461",
      "TPE10462",
      "TPE10764",
      "TPE11031",
      "TPE15334",
      "TPE15335",
      "TPE15353",
      "TPE15355",
      "TPE15358",
      "TPE15359",
      "TPE10767",
      "TPE10856",
      "TPE11051",
      "TPE11062",
      "TPE15314",
      "TPE15513",
      "TPE16153",
      "TPE16506"
    ]
  },
  {
    "uid": "TPE1000212",
    "name": "忠三街口",
    "lon": 121.624032,
    "lat": 25.07849,
    "routes": [
      "TPE10763",
      "TPE10765",
      "TPE10767",
      "TPE10861"
    ]
  },
  {
    "uid": "TPE1000213",
    "name": "新湖一路口",
    "lon": 121.578995,
    "lat": 25.060567,
    "routes": [
      "TPE10293",
      "TPE10847",
      "TPE11055",
      "TPE11056",
      "TPE11212",
      "TPE15361",
      "TPE15572",
      "TPE15688",
      "TPE15689",
      "TPE15690",
      "TPE17390",
      "TPE17555",
      "TPE18044",
      "TPE19721"
    ]
  },
  {
    "uid": "TPE1000215",
    "name": "潭美國小(舊宗)",
    "lon": 121.580784,
    "lat": 25.058127,
    "routes": [
      "TPE10291",
      "TPE10293",
      "TPE10847",
      "TPE11055",
      "TPE11056",
      "TPE11212",
      "TPE15361",
      "TPE15572",
      "TPE15688",
      "TPE15691",
      "TPE15734",
      "TPE17390",
      "TPE17555",
      "TPE18015",
      "TPE18044"
    ]
  },
  {
    "uid": "TPE1000216",
    "name": "南松山(塔悠)",
    "lon": 121.570292,
    "lat": 25.052066,
    "routes": [
      "TPE10291",
      "TPE10293",
      "TPE10846",
      "TPE10847",
      "TPE11111",
      "TPE16111"
    ]
  },
  {
    "uid": "TPE1000217",
    "name": "發電所(西松高中)",
    "lon": 121.569702,
    "lat": 25.055148,
    "routes": [
      "TPE10291",
      "TPE10293",
      "TPE10846",
      "TPE10847",
      "TPE11111",
      "TPE16111"
    ]
  },
  {
    "uid": "TPE1000218",
    "name": "新東里",
    "lon": 121.569212,
    "lat": 25.057804,
    "routes": [
      "TPE10291",
      "TPE10293",
      "TPE10846",
      "TPE10847",
      "TPE11111",
      "TPE16111"
    ]
  },
  {
    "uid": "TPE1000224",
    "name": "新湖三路口(台北花市)",
    "lon": 121.577313,
    "lat": 25.06277,
    "routes": [
      "TPE10293",
      "TPE10432",
      "TPE10847",
      "TPE11055",
      "TPE11056",
      "TPE11212",
      "TPE15361",
      "TPE17555",
      "TPE18044",
      "TPE17436"
    ]
  },
  {
    "uid": "TPE1000225",
    "name": "行忠路口",
    "lon": 121.576262,
    "lat": 25.064368,
    "routes": [
      "TPE17555"
    ]
  },
  {
    "uid": "TPE1000227",
    "name": "敬業四路",
    "lon": 121.558489,
    "lat": 25.081499,
    "routes": [
      "TPE15112",
      "TPE15362",
      "TPE16125",
      "TPE11821",
      "TPE15142",
      "TPE16157",
      "TPE16559"
    ]
  },
  {
    "uid": "TPE1000231",
    "name": "捷運科技大樓站",
    "lon": 121.543453,
    "lat": 25.026389,
    "routes": [
      "TPE10752",
      "TPE10811",
      "TPE11833",
      "TPE16439",
      "TPE16508"
    ]
  },
  {
    "uid": "TPE1000232",
    "name": "憲光公寓",
    "lon": 121.543914,
    "lat": 24.999576,
    "routes": [
      "TPE10711",
      "TPE10734",
      "TPE10736",
      "TPE10742",
      "TPE10743",
      "TPE11221",
      "TPE11763",
      "TPE11811",
      "TPE11813",
      "TPE11815",
      "TPE11833",
      "TPE15161",
      "TPE15164",
      "TPE10735"
    ]
  },
  {
    "uid": "TPE1000234",
    "name": "萬隆",
    "lon": 121.540002,
    "lat": 24.999356,
    "routes": [
      "TPE10326",
      "TPE10328",
      "TPE10332",
      "TPE10333",
      "TPE10334",
      "TPE10712",
      "TPE10736",
      "TPE10742",
      "TPE10746",
      "TPE10752",
      "TPE10848",
      "TPE11221",
      "TPE11764",
      "TPE11833",
      "TPE15191",
      "TPE16439",
      "TPE18228",
      "TPE10735"
    ]
  },
  {
    "uid": "TPE1000235",
    "name": "捷運萬隆站",
    "lon": 121.539154,
    "lat": 25.001573,
    "routes": [
      "TPE10326",
      "TPE10328",
      "TPE10332",
      "TPE10333",
      "TPE10334",
      "TPE10712",
      "TPE10736",
      "TPE10742",
      "TPE10746",
      "TPE10752",
      "TPE10848",
      "TPE11221",
      "TPE11764",
      "TPE11833",
      "TPE15191",
      "TPE16439",
      "TPE18228",
      "TPE10735"
    ]
  },
  {
    "uid": "TPE1000237",
    "name": "芝麻大廈",
    "lon": 121.543886,
    "lat": 25.049144,
    "routes": [
      "TPE10763",
      "TPE10811",
      "TPE11833",
      "TPE15313"
    ]
  },
  {
    "uid": "TPE1000238",
    "name": "捷運南京復興站",
    "lon": 121.544074,
    "lat": 25.052241,
    "routes": [
      "TPE10811",
      "TPE11833",
      "TPE15313",
      "TPE16508",
      "TPE10232",
      "TPE10251",
      "TPE10473",
      "TPE10783",
      "TPE10844",
      "TPE10872",
      "TPE11031",
      "TPE11152",
      "TPE11165",
      "TPE11246",
      "TPE11853",
      "TPE15162",
      "TPE15391",
      "TPE15512",
      "TPE15513",
      "TPE15515",
      "TPE15516",
      "TPE16111",
      "TPE16158",
      "TPE19108",
      "TPE19298",
      "TPE10763",
      "TPE10785"
    ]
  },
  {
    "uid": "TPE1000242",
    "name": "龍山寺(康定)",
    "lon": 121.501375,
    "lat": 25.03631,
    "routes": [
      "TPE10722",
      "TPE11831",
      "TPE10181",
      "TPE10882",
      "TPE11881"
    ]
  },
  {
    "uid": "TPE1000243",
    "name": "華中橋",
    "lon": 121.49657,
    "lat": 25.003299,
    "routes": [
      "TPE16111",
      "TPE19108",
      "TPE15111",
      "TPE15185"
    ]
  },
  {
    "uid": "TPE1000251",
    "name": "南港軟體園區北站",
    "lon": 121.614211,
    "lat": 25.059014,
    "routes": [
      "TPE10231",
      "TPE10461",
      "TPE10462",
      "TPE10856",
      "TPE11051",
      "TPE11062",
      "TPE15314",
      "TPE15334",
      "TPE15513",
      "TPE15571",
      "TPE15690",
      "TPE15698",
      "TPE16649",
      "TPE10251",
      "TPE11031",
      "TPE15335"
    ]
  },
  {
    "uid": "TPE1000252",
    "name": "南港軟體園區南站",
    "lon": 121.61401,
    "lat": 25.056484,
    "routes": [
      "TPE10231",
      "TPE10461",
      "TPE10462",
      "TPE10856",
      "TPE11051",
      "TPE11062",
      "TPE15314",
      "TPE15334",
      "TPE15513",
      "TPE15571",
      "TPE15690",
      "TPE15698",
      "TPE15335",
      "TPE16649"
    ]
  },
  {
    "uid": "TPE1000253",
    "name": "南港高工(南港路)",
    "lon": 121.610219,
    "lat": 25.054951,
    "routes": [
      "TPE10181",
      "TPE10231",
      "TPE10473",
      "TPE10856",
      "TPE10912",
      "TPE11052",
      "TPE11059",
      "TPE11061",
      "TPE11062",
      "TPE11851",
      "TPE11853",
      "TPE15314",
      "TPE15513",
      "TPE15514",
      "TPE15515",
      "TPE15517",
      "TPE15518",
      "TPE15571",
      "TPE16127",
      "TPE15335"
    ]
  },
  {
    "uid": "TPE1000254",
    "name": "土地公廟",
    "lon": 121.51763,
    "lat": 25.116536,
    "routes": [
      "TPE10181",
      "TPE10473",
      "TPE10856",
      "TPE10912",
      "TPE11059",
      "TPE11061",
      "TPE11062",
      "TPE11114",
      "TPE11851",
      "TPE11853",
      "TPE15314",
      "TPE15513",
      "TPE15514",
      "TPE15515",
      "TPE15518",
      "TPE15571",
      "TPE15221",
      "TPE11206",
      "TPE11207",
      "TPE10272",
      "TPE10273"
    ]
  },
  {
    "uid": "TPE1000257",
    "name": "新民路底",
    "lon": 121.514156,
    "lat": 25.141673,
    "routes": [
      "TPE11137",
      "TPE11142",
      "TPE16133",
      "TPE11138",
      "TPE19716"
    ]
  },
  {
    "uid": "TPE1000259",
    "name": "東山路",
    "lon": 121.539072,
    "lat": 25.115563,
    "routes": [
      "TPE15314",
      "TPE15373",
      "TPE15391",
      "TPE16184",
      "TPE18039"
    ]
  },
  {
    "uid": "TPE1000264",
    "name": "台電台北北區營業處",
    "lon": 121.527547,
    "lat": 25.090954,
    "routes": [
      "TPE10811",
      "TPE10821",
      "TPE10823",
      "TPE10824",
      "TPE10874",
      "TPE11093",
      "TPE11813",
      "TPE15171",
      "TPE15314",
      "TPE15321",
      "TPE15331",
      "TPE15332",
      "TPE15373",
      "TPE15391",
      "TPE15682",
      "TPE15695",
      "TPE16746",
      "TPE17436",
      "TPE17993",
      "TPE810",
      "TPE11815",
      "TPE15657",
      "TPE16112"
    ]
  },
  {
    "uid": "TPE1000266",
    "name": "劍潭",
    "lon": 121.524547,
    "lat": 25.081174,
    "routes": [
      "TPE10765",
      "TPE10811",
      "TPE10823",
      "TPE10824",
      "TPE10874",
      "TPE11093",
      "TPE11156",
      "TPE11813",
      "TPE11815",
      "TPE15171",
      "TPE15172",
      "TPE15314",
      "TPE15331",
      "TPE15332",
      "TPE15373",
      "TPE15391",
      "TPE15657",
      "TPE15682",
      "TPE15695",
      "TPE15696",
      "TPE16112",
      "TPE16746",
      "TPE17436",
      "TPE19408",
      "TPE810",
      "TPE11157"
    ]
  },
  {
    "uid": "TPE1000269",
    "name": "八德基隆路口",
    "lon": 121.568427,
    "lat": 25.049316,
    "routes": [
      "TPE10181",
      "TPE11851",
      "TPE15314",
      "TPE15514",
      "TPE15518"
    ]
  },
  {
    "uid": "TPE1000271",
    "name": "台肥新村",
    "lon": 121.603262,
    "lat": 25.053741,
    "routes": [
      "TPE10181",
      "TPE10473",
      "TPE10856",
      "TPE10912",
      "TPE11059",
      "TPE11061",
      "TPE11062",
      "TPE11114",
      "TPE11851",
      "TPE11853",
      "TPE15314",
      "TPE15513",
      "TPE15514",
      "TPE15515",
      "TPE15518",
      "TPE15571"
    ]
  },
  {
    "uid": "TPE1000272",
    "name": "南港行政中心(南港車站)",
    "lon": 121.606907,
    "lat": 25.054371,
    "routes": [
      "TPE10181",
      "TPE10231",
      "TPE10473",
      "TPE10856",
      "TPE10912",
      "TPE11059",
      "TPE11061",
      "TPE11062",
      "TPE11851",
      "TPE11853",
      "TPE15314",
      "TPE15513",
      "TPE15514",
      "TPE15515",
      "TPE15517",
      "TPE15518",
      "TPE15571",
      "TPE16127",
      "TPE11114"
    ]
  },
  {
    "uid": "TPE1000275",
    "name": "士林國中",
    "lon": 121.52307,
    "lat": 25.094672,
    "routes": [
      "TPE10263",
      "TPE11201",
      "TPE11202",
      "TPE15321",
      "TPE15334",
      "TPE15335",
      "TPE15541",
      "TPE15554",
      "TPE17740",
      "TPE17993",
      "TPE19720",
      "TPE19759",
      "TPE10441",
      "TPE10442",
      "TPE11124",
      "TPE11125",
      "TPE11881",
      "TPE15532",
      "TPE17333",
      "TPE19717",
      "TPE10272",
      "TPE10273",
      "TPE10472",
      "TPE11161",
      "TPE11252",
      "TPE11253",
      "TPE15331",
      "TPE15372",
      "TPE15531",
      "TPE15551",
      "TPE15573",
      "TPE15682",
      "TPE17436",
      "TPE18039",
      "TPE10221",
      "TPE11204"
    ]
  },
  {
    "uid": "TPE1000277",
    "name": "南昌路",
    "lon": 121.517358,
    "lat": 25.031124,
    "routes": [
      "TPE10282",
      "TPE10283",
      "TPE10748",
      "TPE18057",
      "TPE10861",
      "TPE11212",
      "TPE11861",
      "TPE15521"
    ]
  },
  {
    "uid": "TPE1000280",
    "name": "行善路",
    "lon": 121.576581,
    "lat": 25.057123,
    "routes": [
      "TPE10293",
      "TPE11114",
      "TPE11212",
      "TPE15734",
      "TPE16440",
      "TPE18044"
    ]
  },
  {
    "uid": "TPE1000281",
    "name": "新湖民善街口(一)",
    "lon": 121.575774,
    "lat": 25.058652,
    "routes": [
      "TPE10293",
      "TPE11114",
      "TPE11212",
      "TPE15734",
      "TPE18044"
    ]
  },
  {
    "uid": "TPE1000285",
    "name": "行愛路77巷口",
    "lon": 121.581353,
    "lat": 25.062362,
    "routes": [
      "TPE10293",
      "TPE11011",
      "TPE11212",
      "TPE16166",
      "TPE17436"
    ]
  },
  {
    "uid": "TPE1000286",
    "name": "行愛路",
    "lon": 121.580095,
    "lat": 25.064028,
    "routes": [
      "TPE10293",
      "TPE11212",
      "TPE16166",
      "TPE17436"
    ]
  },
  {
    "uid": "TPE1000287",
    "name": "國盛國宅",
    "lon": 121.507671,
    "lat": 25.027623,
    "routes": [
      "TPE10736",
      "TPE10861",
      "TPE11212",
      "TPE10735"
    ]
  },
  {
    "uid": "TPE1000288",
    "name": "德行東路",
    "lon": 121.531677,
    "lat": 25.108902,
    "routes": [
      "TPE10811",
      "TPE15372",
      "TPE15546",
      "TPE15657",
      "TPE15735",
      "TPE18039"
    ]
  },
  {
    "uid": "TPE1000289",
    "name": "芝山抽水站",
    "lon": 121.527198,
    "lat": 25.10128,
    "routes": [
      "TPE15372"
    ]
  },
  {
    "uid": "TPE1000294",
    "name": "吳興街口",
    "lon": 121.558723,
    "lat": 25.031595,
    "routes": [
      "TPE10334",
      "TPE10723",
      "TPE11221",
      "TPE11246",
      "TPE11742",
      "TPE15572",
      "TPE15676",
      "TPE15694",
      "TPE15698",
      "TPE16158",
      "TPE16706",
      "TPE17390",
      "TPE18198",
      "TPE18228",
      "TPE18199"
    ]
  },
  {
    "uid": "TPE1000295",
    "name": "三興國小(臨江街觀光夜市)",
    "lon": 121.556803,
    "lat": 25.028404,
    "routes": [
      "TPE10334",
      "TPE10723",
      "TPE10785",
      "TPE11221",
      "TPE11246",
      "TPE11742",
      "TPE15162",
      "TPE15572",
      "TPE15676",
      "TPE15694",
      "TPE15698",
      "TPE16158",
      "TPE16706",
      "TPE17390",
      "TPE18198",
      "TPE18228",
      "TPE10783",
      "TPE18199"
    ]
  },
  {
    "uid": "TPE1000296",
    "name": "永元路",
    "lon": 121.522341,
    "lat": 25.001432,
    "routes": [
      "TPE10783",
      "TPE10785",
      "TPE11834",
      "TPE15572",
      "TPE16169",
      "TPE16709",
      "TPE18198"
    ]
  },
  {
    "uid": "TPE1000297",
    "name": "福和橋(林森路)",
    "lon": 121.523431,
    "lat": 25.003877,
    "routes": [
      "TPE10783",
      "TPE10785",
      "TPE11834",
      "TPE15112",
      "TPE15113",
      "TPE15563",
      "TPE15572",
      "TPE15694",
      "TPE15698",
      "TPE16157",
      "TPE16169",
      "TPE16709",
      "TPE17390",
      "TPE17512",
      "TPE18198"
    ]
  },
  {
    "uid": "TPE1000299",
    "name": "玉成公園(中坡)",
    "lon": 121.585103,
    "lat": 25.041533,
    "routes": [
      "TPE15572",
      "TPE15708",
      "TPE19448"
    ]
  },
  {
    "uid": "TPE10003",
    "name": "連城景平路(暫時裁撤)",
    "lon": 121.496292,
    "lat": 24.999612,
    "routes": [
      "TPE15561",
      "TPE15562",
      "TPE15563",
      "TPE15685",
      "TPE15687",
      "TPE15694",
      "TPE15698",
      "TPE16111",
      "TPE17390",
      "TPE17512",
      "TPE19108"
    ]
  },
  {
    "uid": "TPE1000301",
    "name": "協和祐德高中",
    "lon": 121.583622,
    "lat": 25.042683,
    "routes": [
      "TPE15572",
      "TPE15708",
      "TPE19448"
    ]
  },
  {
    "uid": "TPE1000302",
    "name": "福和國中",
    "lon": 121.521509,
    "lat": 25.003241,
    "routes": [
      "TPE15112",
      "TPE15113",
      "TPE15694",
      "TPE15698",
      "TPE17390",
      "TPE15563",
      "TPE16157",
      "TPE17512"
    ]
  },
  {
    "uid": "TPE1000303",
    "name": "福和橋(永元路)",
    "lon": 121.522863,
    "lat": 25.002987,
    "routes": [
      "TPE10783",
      "TPE10785",
      "TPE15572",
      "TPE15694",
      "TPE15698",
      "TPE16169",
      "TPE17390",
      "TPE18198",
      "TPE15112",
      "TPE15113"
    ]
  },
  {
    "uid": "TPE1000308",
    "name": "輕軌新和國小站(水工大樓)",
    "lon": 121.517886,
    "lat": 24.98346,
    "routes": [
      "TPE15111",
      "TPE15112",
      "TPE15113",
      "TPE15185",
      "TPE16157"
    ]
  },
  {
    "uid": "TPE1000309",
    "name": "新和國小",
    "lon": 121.516976,
    "lat": 24.985437,
    "routes": [
      "TPE15111",
      "TPE15112",
      "TPE15113",
      "TPE15185",
      "TPE16157"
    ]
  },
  {
    "uid": "TPE1000310",
    "name": "新生南路一段",
    "lon": 121.53185,
    "lat": 25.040285,
    "routes": [
      "TPE11232",
      "TPE10842",
      "TPE15561",
      "TPE15562"
    ]
  },
  {
    "uid": "TPE1000311",
    "name": "濟南路二段",
    "lon": 121.526926,
    "lat": 25.041403,
    "routes": [
      "TPE11232",
      "TPE16157",
      "TPE10842"
    ]
  },
  {
    "uid": "TPE1000313",
    "name": "中研新村",
    "lon": 121.615612,
    "lat": 25.044898,
    "routes": [
      "TPE10181",
      "TPE10461",
      "TPE10462",
      "TPE10473",
      "TPE10911",
      "TPE10912",
      "TPE10941",
      "TPE11051",
      "TPE11052",
      "TPE11059",
      "TPE11061",
      "TPE11841",
      "TPE11842",
      "TPE11851",
      "TPE11853",
      "TPE15334",
      "TPE16127",
      "TPE16132"
    ]
  },
  {
    "uid": "TPE1000314",
    "name": "南港高中",
    "lon": 121.595107,
    "lat": 25.052985,
    "routes": [
      "TPE10241",
      "TPE10856",
      "TPE10912",
      "TPE11058",
      "TPE11059",
      "TPE11061",
      "TPE11062",
      "TPE11114",
      "TPE11221",
      "TPE15391",
      "TPE15571",
      "TPE15708",
      "TPE16125",
      "TPE16440",
      "TPE16649"
    ]
  },
  {
    "uid": "TPE1000316",
    "name": "捷運後山埤站(永吉)",
    "lon": 121.581834,
    "lat": 25.045345,
    "routes": [
      "TPE10856",
      "TPE10912",
      "TPE11066",
      "TPE11221",
      "TPE15391"
    ]
  },
  {
    "uid": "TPE1000324",
    "name": "福和路",
    "lon": 121.518643,
    "lat": 25.007529,
    "routes": [
      "TPE10771",
      "TPE15561",
      "TPE15563",
      "TPE17512"
    ]
  },
  {
    "uid": "TPE1000325",
    "name": "重慶南路三段(中正橋)",
    "lon": 121.516713,
    "lat": 25.024529,
    "routes": [
      "TPE10771",
      "TPE10961",
      "TPE10962",
      "TPE11041",
      "TPE11861",
      "TPE15521",
      "TPE15553",
      "TPE15554",
      "TPE15561",
      "TPE15562",
      "TPE15685",
      "TPE15687"
    ]
  },
  {
    "uid": "TPE1000326",
    "name": "民權復興路口",
    "lon": 121.544261,
    "lat": 25.062246,
    "routes": [
      "TPE10231",
      "TPE10422",
      "TPE10431",
      "TPE11011",
      "TPE11831",
      "TPE11834",
      "TPE15561",
      "TPE15562",
      "TPE15683",
      "TPE16128",
      "TPE16166",
      "TPE17952",
      "TPE810",
      "TPE10291",
      "TPE10443"
    ]
  },
  {
    "uid": "TPE1000328",
    "name": "農訓協會",
    "lon": 121.53187,
    "lat": 25.12262,
    "routes": [
      "TPE10811",
      "TPE11064",
      "TPE11881",
      "TPE15332",
      "TPE15341",
      "TPE15373",
      "TPE15375",
      "TPE15581",
      "TPE15679",
      "TPE15680",
      "TPE15695",
      "TPE16184"
    ]
  },
  {
    "uid": "TPE1000332",
    "name": "信義路",
    "lon": 121.475893,
    "lat": 25.001497,
    "routes": [
      "TPE15561",
      "TPE10481",
      "TPE11171",
      "TPE16131"
    ]
  },
  {
    "uid": "TPE1000334",
    "name": "中和區公所(景平路)",
    "lon": 121.499638,
    "lat": 24.998569,
    "routes": [
      "TPE10961",
      "TPE10962",
      "TPE15185",
      "TPE18198",
      "TPE18199"
    ]
  },
  {
    "uid": "TPE1000341",
    "name": "酒泉街",
    "lon": 121.51345,
    "lat": 25.072114,
    "routes": [
      "TPE10261",
      "TPE10262",
      "TPE10882",
      "TPE11871",
      "TPE15322",
      "TPE15381"
    ]
  },
  {
    "uid": "TPE1000347",
    "name": "捷運芝山站一",
    "lon": 121.522482,
    "lat": 25.100823,
    "routes": [
      "TPE10263",
      "TPE10441",
      "TPE10442",
      "TPE10874",
      "TPE11124",
      "TPE11125",
      "TPE11152",
      "TPE11156",
      "TPE11161",
      "TPE11815",
      "TPE11881",
      "TPE15151",
      "TPE15546",
      "TPE15581",
      "TPE15657",
      "TPE15679",
      "TPE15680",
      "TPE15681",
      "TPE15696",
      "TPE16112",
      "TPE16184",
      "TPE19408",
      "TPE19717",
      "TPE19720"
    ]
  },
  {
    "uid": "TPE1000348",
    "name": "中正高中",
    "lon": 121.517589,
    "lat": 25.105437,
    "routes": [
      "TPE10263",
      "TPE10441",
      "TPE10442",
      "TPE10874",
      "TPE11124",
      "TPE11125",
      "TPE11152",
      "TPE11156",
      "TPE11881",
      "TPE15151",
      "TPE15332",
      "TPE15679",
      "TPE15680",
      "TPE15681",
      "TPE15695",
      "TPE15696",
      "TPE19408",
      "TPE19717",
      "TPE19720"
    ]
  },
  {
    "uid": "TPE1000349",
    "name": "石牌福星宮",
    "lon": 121.512063,
    "lat": 25.109992,
    "routes": [
      "TPE10874",
      "TPE11125",
      "TPE11152",
      "TPE11156",
      "TPE11881",
      "TPE15151",
      "TPE15679",
      "TPE15680",
      "TPE15695",
      "TPE15696",
      "TPE19408",
      "TPE19717"
    ]
  },
  {
    "uid": "TPE1000350",
    "name": "貴子坑水土保持園區",
    "lon": 121.492627,
    "lat": 25.145162,
    "routes": [
      "TPE11124",
      "TPE11141",
      "TPE11152",
      "TPE11156",
      "TPE11157",
      "TPE11158",
      "TPE15681",
      "TPE15696",
      "TPE15735",
      "TPE19408"
    ]
  },
  {
    "uid": "TPE1000351",
    "name": "北投站",
    "lon": 121.492071,
    "lat": 25.144595,
    "routes": [
      "TPE11141",
      "TPE11152",
      "TPE11156",
      "TPE11157",
      "TPE11158",
      "TPE15681",
      "TPE15696",
      "TPE15735",
      "TPE19408"
    ]
  },
  {
    "uid": "TPE1000365",
    "name": "集美國小",
    "lon": 121.488056,
    "lat": 25.055732,
    "routes": [
      "TPE10415",
      "TPE10417",
      "TPE11241",
      "TPE10423"
    ]
  },
  {
    "uid": "TPE1000367",
    "name": "瑞湖街口",
    "lon": 121.576641,
    "lat": 25.067591,
    "routes": [
      "TPE10841",
      "TPE10842",
      "TPE10847",
      "TPE19721"
    ]
  },
  {
    "uid": "TPE1000372",
    "name": "三城",
    "lon": 121.483021,
    "lat": 24.949643,
    "routes": [
      "TPE10326",
      "TPE10328",
      "TPE15183",
      "TPE15184",
      "TPE15185",
      "TPE15676"
    ]
  },
  {
    "uid": "TPE1000374",
    "name": "建業路",
    "lon": 121.484387,
    "lat": 24.951215,
    "routes": [
      "TPE10326",
      "TPE10328",
      "TPE15183",
      "TPE15184",
      "TPE15185",
      "TPE15676"
    ]
  },
  {
    "uid": "TPE1000375",
    "name": "二城",
    "lon": 121.486131,
    "lat": 24.951706,
    "routes": [
      "TPE10326",
      "TPE10328",
      "TPE15183",
      "TPE15184",
      "TPE15185",
      "TPE15676"
    ]
  },
  {
    "uid": "TPE1000376",
    "name": "中央印製廠",
    "lon": 121.488321,
    "lat": 24.951795,
    "routes": [
      "TPE10326",
      "TPE10328",
      "TPE15183",
      "TPE15184",
      "TPE15185",
      "TPE15676"
    ]
  },
  {
    "uid": "TPE1000379",
    "name": "頭城",
    "lon": 121.491564,
    "lat": 24.951836,
    "routes": [
      "TPE10326",
      "TPE10328",
      "TPE15183",
      "TPE15184",
      "TPE15185",
      "TPE15676"
    ]
  },
  {
    "uid": "TPE1000380",
    "name": "大茅埔",
    "lon": 121.494755,
    "lat": 24.954456,
    "routes": [
      "TPE10142",
      "TPE10326",
      "TPE10328",
      "TPE15183",
      "TPE15184",
      "TPE15185",
      "TPE15676"
    ]
  },
  {
    "uid": "TPE1000381",
    "name": "康樂新村",
    "lon": 121.496968,
    "lat": 24.955326,
    "routes": [
      "TPE10142",
      "TPE10326",
      "TPE10328",
      "TPE15183",
      "TPE15184",
      "TPE15185",
      "TPE15676"
    ]
  },
  {
    "uid": "TPE1000383",
    "name": "啟聰學校",
    "lon": 121.513846,
    "lat": 25.07441,
    "routes": [
      "TPE11124",
      "TPE11125",
      "TPE11881",
      "TPE15333",
      "TPE15381",
      "TPE15532",
      "TPE15554",
      "TPE16707"
    ]
  },
  {
    "uid": "TPE1000388",
    "name": "捷運芝山站(戲曲中心)",
    "lon": 121.520572,
    "lat": 25.102382,
    "routes": [
      "TPE10263",
      "TPE10441",
      "TPE10442",
      "TPE10874",
      "TPE11124",
      "TPE11125",
      "TPE11152",
      "TPE11156",
      "TPE11881",
      "TPE15151",
      "TPE15332",
      "TPE15546",
      "TPE15679",
      "TPE15680",
      "TPE15681",
      "TPE15696",
      "TPE17908",
      "TPE19408",
      "TPE19717",
      "TPE19720",
      "TPE15581"
    ]
  },
  {
    "uid": "TPE1000389",
    "name": "大愛電視台",
    "lon": 121.471449,
    "lat": 25.123677,
    "routes": [
      "TPE11124"
    ]
  },
  {
    "uid": "TPE1000393",
    "name": "捷運民權西路站",
    "lon": 121.518679,
    "lat": 25.062953,
    "routes": [
      "TPE10231",
      "TPE10414",
      "TPE10422",
      "TPE10431",
      "TPE10443",
      "TPE10847",
      "TPE11011",
      "TPE11232",
      "TPE11245",
      "TPE15521",
      "TPE15522",
      "TPE15683",
      "TPE16128",
      "TPE17952",
      "TPE10221",
      "TPE10415",
      "TPE10472",
      "TPE11242",
      "TPE11871",
      "TPE15581",
      "TPE15546"
    ]
  },
  {
    "uid": "TPE1000394",
    "name": "蘆洲派出所",
    "lon": 121.473377,
    "lat": 25.081965,
    "routes": [
      "TPE10416",
      "TPE10417",
      "TPE10419",
      "TPE10441",
      "TPE10442",
      "TPE10443",
      "TPE10473",
      "TPE16128",
      "TPE18039"
    ]
  },
  {
    "uid": "TPE1000396",
    "name": "捷運忠孝新生站",
    "lon": 121.532784,
    "lat": 25.041139,
    "routes": [
      "TPE10328",
      "TPE10332",
      "TPE10783",
      "TPE10842",
      "TPE10848",
      "TPE11245",
      "TPE11813",
      "TPE15161",
      "TPE15362",
      "TPE15512",
      "TPE15515",
      "TPE15546",
      "TPE15561",
      "TPE15562",
      "TPE15657",
      "TPE16184",
      "TPE10785"
    ]
  },
  {
    "uid": "TPE1000399",
    "name": "寧波重慶路口",
    "lon": 121.515479,
    "lat": 25.02898,
    "routes": [
      "TPE10961",
      "TPE10962",
      "TPE15521",
      "TPE15553",
      "TPE15554",
      "TPE11861"
    ]
  },
  {
    "uid": "TPE10004",
    "name": "中和國稅局",
    "lon": 121.495016,
    "lat": 24.998227,
    "routes": [
      "TPE15561",
      "TPE15562",
      "TPE15563",
      "TPE15685",
      "TPE15687",
      "TPE15694",
      "TPE15698",
      "TPE16111",
      "TPE17390",
      "TPE17512",
      "TPE19108"
    ]
  },
  {
    "uid": "TPE1000401",
    "name": "浪漫貴族",
    "lon": 121.511162,
    "lat": 24.959963,
    "routes": [
      "TPE10142",
      "TPE10326",
      "TPE10328",
      "TPE15183",
      "TPE15184",
      "TPE15185",
      "TPE15676"
    ]
  },
  {
    "uid": "TPE1000402",
    "name": "公崙新村(豐榮醫院)",
    "lon": 121.512583,
    "lat": 24.96201,
    "routes": [
      "TPE10142",
      "TPE10326",
      "TPE10328",
      "TPE15183",
      "TPE15184",
      "TPE15185",
      "TPE15676"
    ]
  },
  {
    "uid": "TPE1000403",
    "name": "安康派出所",
    "lon": 121.514663,
    "lat": 24.963494,
    "routes": [
      "TPE10142",
      "TPE10326",
      "TPE10328",
      "TPE15183",
      "TPE15184",
      "TPE15185",
      "TPE15676"
    ]
  },
  {
    "uid": "TPE1000404",
    "name": "仁愛街口",
    "lon": 121.484955,
    "lat": 25.08236,
    "routes": [
      "TPE10415",
      "TPE10421",
      "TPE11245"
    ]
  },
  {
    "uid": "TPE1000405",
    "name": "鷺江國小(民族路)",
    "lon": 121.47567,
    "lat": 25.083993,
    "routes": [
      "TPE10415"
    ]
  },
  {
    "uid": "TPE1000407",
    "name": "雅敘園",
    "lon": 121.506285,
    "lat": 25.140603,
    "routes": [
      "TPE11143",
      "TPE11145",
      "TPE11151",
      "TPE15726",
      "TPE11137"
    ]
  },
  {
    "uid": "TPE1000409",
    "name": "八勝園",
    "lon": 121.511366,
    "lat": 25.141278,
    "routes": [
      "TPE11143",
      "TPE11145",
      "TPE11151",
      "TPE15726",
      "TPE11137"
    ]
  },
  {
    "uid": "TPE1000410",
    "name": "大磺嘴",
    "lon": 121.522457,
    "lat": 25.142522,
    "routes": [
      "TPE11138",
      "TPE11151"
    ]
  },
  {
    "uid": "TPE1000411",
    "name": "水井尾",
    "lon": 121.531842,
    "lat": 25.145993,
    "routes": [
      "TPE11064",
      "TPE11138",
      "TPE11151",
      "TPE15724"
    ]
  },
  {
    "uid": "TPE1000412",
    "name": "第二展望",
    "lon": 121.53165,
    "lat": 25.143567,
    "routes": [
      "TPE11151",
      "TPE15724"
    ]
  },
  {
    "uid": "TPE1000413",
    "name": "紗帽陽明路口",
    "lon": 121.548798,
    "lat": 25.149144,
    "routes": [
      "TPE10272",
      "TPE10273",
      "TPE11151",
      "TPE15724"
    ]
  },
  {
    "uid": "TPE1000414",
    "name": "頂半嶺",
    "lon": 121.539448,
    "lat": 25.143995,
    "routes": [
      "TPE11151",
      "TPE15724"
    ]
  },
  {
    "uid": "TPE1000416",
    "name": "大埔(明玄宮)",
    "lon": 121.535496,
    "lat": 25.143118,
    "routes": [
      "TPE11151",
      "TPE15724"
    ]
  },
  {
    "uid": "TPE1000417",
    "name": "自來水公司",
    "lon": 121.470988,
    "lat": 25.067567,
    "routes": [
      "TPE10481",
      "TPE11171",
      "TPE17740"
    ]
  },
  {
    "uid": "TPE1000418",
    "name": "長壽里",
    "lon": 121.479096,
    "lat": 25.014784,
    "routes": [
      "TPE10481",
      "TPE11171"
    ]
  },
  {
    "uid": "TPE1000420",
    "name": "埔墘(三民路)",
    "lon": 121.47923,
    "lat": 25.017501,
    "routes": [
      "TPE10481",
      "TPE11171"
    ]
  },
  {
    "uid": "TPE1000423",
    "name": "捷運蘆洲站",
    "lon": 121.464249,
    "lat": 25.091257,
    "routes": [
      "TPE10441",
      "TPE10443",
      "TPE16128",
      "TPE10416",
      "TPE10414",
      "TPE10415",
      "TPE10421",
      "TPE10891"
    ]
  },
  {
    "uid": "TPE1000425",
    "name": "力行路",
    "lon": 121.4829,
    "lat": 25.070419,
    "routes": [
      "TPE10416"
    ]
  },
  {
    "uid": "TPE1000426",
    "name": "松隆路口",
    "lon": 121.569578,
    "lat": 25.045012,
    "routes": [
      "TPE10417",
      "TPE10419",
      "TPE10912",
      "TPE11411",
      "TPE10846"
    ]
  },
  {
    "uid": "TPE1000432",
    "name": "民安路",
    "lon": 121.425156,
    "lat": 25.024022,
    "routes": [
      "TPE10221",
      "TPE10283"
    ]
  },
  {
    "uid": "TPE1000433",
    "name": "捷運新莊站(新莊郵局)",
    "lon": 121.449728,
    "lat": 25.035487,
    "routes": [
      "TPE10472",
      "TPE11421",
      "TPE16706",
      "TPE10282",
      "TPE10283"
    ]
  },
  {
    "uid": "TPE1000435",
    "name": "臺北市憲兵隊",
    "lon": 121.509124,
    "lat": 25.040727,
    "routes": [
      "TPE10283",
      "TPE11841",
      "TPE15532"
    ]
  },
  {
    "uid": "TPE1000436",
    "name": "貓纜動物園站",
    "lon": 121.576487,
    "lat": 24.996555,
    "routes": [
      "TPE10142",
      "TPE10711",
      "TPE10741",
      "TPE10742",
      "TPE10743",
      "TPE10744",
      "TPE10745",
      "TPE10747",
      "TPE10748",
      "TPE10749",
      "TPE11052",
      "TPE11742",
      "TPE11763",
      "TPE15161",
      "TPE15162",
      "TPE15730",
      "TPE16127",
      "TPE16163",
      "TPE16568",
      "TPE17944",
      "TPE18057",
      "TPE18658"
    ]
  },
  {
    "uid": "TPE1000439",
    "name": "木柵",
    "lon": 121.566466,
    "lat": 24.98854,
    "routes": [
      "TPE10711",
      "TPE10742",
      "TPE10754",
      "TPE11023",
      "TPE11071",
      "TPE11073",
      "TPE11763",
      "TPE15164",
      "TPE15191",
      "TPE17825",
      "TPE18040"
    ]
  },
  {
    "uid": "TPE1000441",
    "name": "忠順街口",
    "lon": 121.561663,
    "lat": 24.984539,
    "routes": [
      "TPE10734",
      "TPE10735",
      "TPE10736",
      "TPE10745",
      "TPE15161",
      "TPE17944",
      "TPE19776"
    ]
  },
  {
    "uid": "TPE1000443",
    "name": "馬明潭(再興中學)",
    "lon": 121.559832,
    "lat": 24.989371,
    "routes": [
      "TPE10711",
      "TPE10735",
      "TPE10743",
      "TPE10745",
      "TPE10749",
      "TPE10751",
      "TPE11023",
      "TPE11742",
      "TPE11763",
      "TPE15161",
      "TPE15164",
      "TPE16747",
      "TPE17944",
      "TPE10736",
      "TPE19776"
    ]
  },
  {
    "uid": "TPE1000444",
    "name": "興隆山莊",
    "lon": 121.558941,
    "lat": 24.991077,
    "routes": [
      "TPE10711",
      "TPE10735",
      "TPE10743",
      "TPE10745",
      "TPE10749",
      "TPE10751",
      "TPE11023",
      "TPE11742",
      "TPE11763",
      "TPE15161",
      "TPE15164",
      "TPE16747",
      "TPE17944",
      "TPE10736",
      "TPE19776"
    ]
  },
  {
    "uid": "TPE1000445",
    "name": "捷運辛亥站",
    "lon": 121.55674,
    "lat": 25.004305,
    "routes": [
      "TPE10745",
      "TPE10747",
      "TPE10748",
      "TPE10751",
      "TPE10782",
      "TPE11023",
      "TPE11742",
      "TPE16747",
      "TPE18057"
    ]
  },
  {
    "uid": "TPE1000446",
    "name": "辛亥國小",
    "lon": 121.558595,
    "lat": 25.006951,
    "routes": [
      "TPE10745",
      "TPE10747",
      "TPE10748",
      "TPE10751",
      "TPE10782",
      "TPE11022",
      "TPE11023",
      "TPE11742",
      "TPE16747",
      "TPE18057"
    ]
  },
  {
    "uid": "TPE1000447",
    "name": "大安健康服務中心",
    "lon": 121.543356,
    "lat": 25.022489,
    "routes": [
      "TPE10745",
      "TPE10748",
      "TPE16508",
      "TPE17022",
      "TPE18057"
    ]
  },
  {
    "uid": "TPE1000448",
    "name": "國立臺北教育大學",
    "lon": 121.544461,
    "lat": 25.024604,
    "routes": [
      "TPE10745",
      "TPE10748",
      "TPE18057",
      "TPE10282",
      "TPE10283",
      "TPE10725",
      "TPE10726",
      "TPE10752",
      "TPE10792",
      "TPE10811",
      "TPE11221",
      "TPE11232",
      "TPE11812",
      "TPE11834",
      "TPE15362",
      "TPE15572",
      "TPE16184",
      "TPE16439",
      "TPE17022"
    ]
  },
  {
    "uid": "TPE1000451",
    "name": "捷運辛亥站一",
    "lon": 121.555869,
    "lat": 25.003075,
    "routes": [
      "TPE10745",
      "TPE10747",
      "TPE10748",
      "TPE10751",
      "TPE10782",
      "TPE11023",
      "TPE11742",
      "TPE16747",
      "TPE18057"
    ]
  },
  {
    "uid": "TPE1000452",
    "name": "文山運動中心(萬芳)",
    "lon": 121.560581,
    "lat": 24.997009,
    "routes": [
      "TPE10733",
      "TPE10742",
      "TPE11811",
      "TPE11813",
      "TPE11815",
      "TPE17944"
    ]
  },
  {
    "uid": "TPE1000453",
    "name": "忠順廟",
    "lon": 121.564588,
    "lat": 24.982608,
    "routes": [
      "TPE10142",
      "TPE10712",
      "TPE10745",
      "TPE10746",
      "TPE10748",
      "TPE11073",
      "TPE11742",
      "TPE11764",
      "TPE15161",
      "TPE17944",
      "TPE18057"
    ]
  },
  {
    "uid": "TPE1000454",
    "name": "司法新村",
    "lon": 121.566308,
    "lat": 24.983478,
    "routes": [
      "TPE10745",
      "TPE11073",
      "TPE10142",
      "TPE10712",
      "TPE10746",
      "TPE10748",
      "TPE11742",
      "TPE11764",
      "TPE15161",
      "TPE17944",
      "TPE18057"
    ]
  },
  {
    "uid": "TPE1000456",
    "name": "景文中學(臺灣戲曲學院)",
    "lon": 121.567374,
    "lat": 24.985534,
    "routes": [
      "TPE10745",
      "TPE11073"
    ]
  },
  {
    "uid": "TPE1000468",
    "name": "東湖站",
    "lon": 121.603015,
    "lat": 25.061167,
    "routes": [
      "TPE15353",
      "TPE15359"
    ]
  },
  {
    "uid": "TPE1000470",
    "name": "劉厝",
    "lon": 121.526553,
    "lat": 24.996599,
    "routes": [
      "TPE11834",
      "TPE16709",
      "TPE18199"
    ]
  },
  {
    "uid": "TPE1000471",
    "name": "網溪國小",
    "lon": 121.519155,
    "lat": 25.012661,
    "routes": [
      "TPE10771",
      "TPE15561"
    ]
  },
  {
    "uid": "TPE1000474",
    "name": "六合社區",
    "lon": 121.526292,
    "lat": 24.998726,
    "routes": [
      "TPE11834",
      "TPE16709",
      "TPE18199"
    ]
  },
  {
    "uid": "TPE1000476",
    "name": "正興里",
    "lon": 121.5155,
    "lat": 25.010161,
    "routes": [
      "TPE10961",
      "TPE10962",
      "TPE15698"
    ]
  },
  {
    "uid": "TPE1000491",
    "name": "重慶國中",
    "lon": 121.490978,
    "lat": 25.037236,
    "routes": [
      "TPE10481",
      "TPE10482",
      "TPE11171",
      "TPE16131",
      "TPE19488"
    ]
  },
  {
    "uid": "TPE1000492",
    "name": "中興醫院",
    "lon": 121.460661,
    "lat": 25.001979,
    "routes": [
      "TPE10481",
      "TPE10482",
      "TPE11171",
      "TPE16131"
    ]
  },
  {
    "uid": "TPE1000498",
    "name": "行政院",
    "lon": 121.520502,
    "lat": 25.045965,
    "routes": [
      "TPE11831",
      "TPE15381",
      "TPE16111",
      "TPE19108",
      "TPE10262",
      "TPE10414",
      "TPE10844",
      "TPE10851",
      "TPE11861",
      "TPE15111",
      "TPE15185",
      "TPE15353",
      "TPE15373",
      "TPE15516",
      "TPE15521",
      "TPE16746",
      "TPE10415",
      "TPE10471",
      "TPE10823",
      "TPE10824",
      "TPE10891",
      "TPE10893",
      "TPE11156",
      "TPE11157",
      "TPE16112",
      "TPE19688"
    ]
  },
  {
    "uid": "TPE1000499",
    "name": "西湖圖書館(湖光教會)",
    "lon": 121.57814,
    "lat": 25.078909,
    "routes": [
      "TPE10842",
      "TPE10851",
      "TPE10853",
      "TPE15141",
      "TPE15312",
      "TPE15332",
      "TPE15334",
      "TPE15335",
      "TPE15353",
      "TPE15358",
      "TPE15359",
      "TPE15561",
      "TPE16125",
      "TPE10752",
      "TPE10841",
      "TPE10846",
      "TPE10253",
      "TPE10844",
      "TPE11055",
      "TPE11056",
      "TPE15331",
      "TPE17436"
    ]
  },
  {
    "uid": "TPE10005",
    "name": "台貿一村",
    "lon": 121.492287,
    "lat": 24.996643,
    "routes": [
      "TPE15561",
      "TPE15562",
      "TPE15563",
      "TPE15685",
      "TPE15687",
      "TPE15694",
      "TPE15698",
      "TPE16111",
      "TPE17390",
      "TPE17512",
      "TPE19108"
    ]
  },
  {
    "uid": "TPE1000500",
    "name": "敬業三路二",
    "lon": 121.556403,
    "lat": 25.080988,
    "routes": [
      "TPE15112",
      "TPE15331",
      "TPE15352",
      "TPE15362",
      "TPE16125",
      "TPE16174",
      "TPE17436",
      "TPE17555"
    ]
  },
  {
    "uid": "TPE1000501",
    "name": "敬業三路一",
    "lon": 121.556327,
    "lat": 25.083093,
    "routes": [
      "TPE15331",
      "TPE16174",
      "TPE17436",
      "TPE15112",
      "TPE15362",
      "TPE16125",
      "TPE17555"
    ]
  },
  {
    "uid": "TPE1000504",
    "name": "及人中學",
    "lon": 121.517924,
    "lat": 24.967205,
    "routes": [
      "TPE15111",
      "TPE15112",
      "TPE15113",
      "TPE15184",
      "TPE15185",
      "TPE16157"
    ]
  },
  {
    "uid": "TPE1000505",
    "name": "十四份",
    "lon": 121.518612,
    "lat": 24.969279,
    "routes": [
      "TPE15111",
      "TPE15112",
      "TPE15113",
      "TPE15184",
      "TPE15185",
      "TPE16157"
    ]
  },
  {
    "uid": "TPE1000506",
    "name": "輕軌陽光運動公園站",
    "lon": 121.519686,
    "lat": 24.97281,
    "routes": [
      "TPE15111",
      "TPE15112",
      "TPE15113",
      "TPE15184",
      "TPE15185",
      "TPE16157"
    ]
  },
  {
    "uid": "TPE1000510",
    "name": "石頭厝",
    "lon": 121.518994,
    "lat": 24.974209,
    "routes": [
      "TPE15111",
      "TPE15112",
      "TPE15113",
      "TPE15184",
      "TPE15185",
      "TPE16157"
    ]
  },
  {
    "uid": "TPE1000512",
    "name": "安和路二段",
    "lon": 121.51732,
    "lat": 24.976006,
    "routes": [
      "TPE15111",
      "TPE15112",
      "TPE15113",
      "TPE15184",
      "TPE15185",
      "TPE16157"
    ]
  },
  {
    "uid": "TPE1000513",
    "name": "中正二分局",
    "lon": 121.513992,
    "lat": 25.032514,
    "routes": [
      "TPE10961",
      "TPE10962",
      "TPE15553",
      "TPE15554"
    ]
  },
  {
    "uid": "TPE1000515",
    "name": "愛國金山路口",
    "lon": 121.526147,
    "lat": 25.031908,
    "routes": [
      "TPE10735"
    ]
  },
  {
    "uid": "TPE1000517",
    "name": "湖山巖",
    "lon": 121.503322,
    "lat": 24.982166,
    "routes": [
      "TPE10771"
    ]
  },
  {
    "uid": "TPE1000519",
    "name": "無極宮",
    "lon": 121.496603,
    "lat": 24.978007,
    "routes": [
      "TPE10771"
    ]
  },
  {
    "uid": "TPE1000520",
    "name": "崁頂",
    "lon": 121.51311,
    "lat": 25.025242,
    "routes": [
      "TPE10771",
      "TPE10782",
      "TPE16747"
    ]
  },
  {
    "uid": "TPE1000521",
    "name": "萬壽橋頭(木柵)",
    "lon": 121.571044,
    "lat": 24.991312,
    "routes": [
      "TPE10712",
      "TPE10741",
      "TPE10743",
      "TPE10745",
      "TPE10746",
      "TPE10749",
      "TPE10754",
      "TPE11021",
      "TPE11023",
      "TPE11764",
      "TPE15162",
      "TPE15191",
      "TPE16127",
      "TPE17825"
    ]
  },
  {
    "uid": "TPE1000522",
    "name": "景文中學",
    "lon": 121.568744,
    "lat": 24.98396,
    "routes": [
      "TPE10142",
      "TPE10712",
      "TPE10746",
      "TPE10748",
      "TPE11742",
      "TPE11764",
      "TPE15161",
      "TPE17944",
      "TPE18057"
    ]
  },
  {
    "uid": "TPE1000523",
    "name": "興隆路口(忠順)",
    "lon": 121.560982,
    "lat": 24.984389,
    "routes": [
      "TPE10712",
      "TPE11742",
      "TPE11764"
    ]
  },
  {
    "uid": "TPE1000524",
    "name": "忠順街",
    "lon": 121.558882,
    "lat": 24.984059,
    "routes": [
      "TPE10712",
      "TPE11742",
      "TPE11764"
    ]
  },
  {
    "uid": "TPE1000525",
    "name": "實踐國小",
    "lon": 121.55686,
    "lat": 24.983531,
    "routes": [
      "TPE10712",
      "TPE11742",
      "TPE11764"
    ]
  },
  {
    "uid": "TPE1000543",
    "name": "木柵高工",
    "lon": 121.572459,
    "lat": 24.996273,
    "routes": [
      "TPE10331",
      "TPE10712",
      "TPE10741",
      "TPE10746",
      "TPE10754",
      "TPE11764",
      "TPE15162",
      "TPE15191",
      "TPE16127",
      "TPE17825",
      "TPE17944"
    ]
  },
  {
    "uid": "TPE1000544",
    "name": "指南路口",
    "lon": 121.570664,
    "lat": 24.986709,
    "routes": [
      "TPE10142",
      "TPE10712",
      "TPE10746",
      "TPE10748",
      "TPE11742",
      "TPE11764",
      "TPE15161",
      "TPE17944",
      "TPE18057",
      "TPE10711",
      "TPE10741",
      "TPE10742",
      "TPE11763",
      "TPE15162",
      "TPE15164",
      "TPE16127"
    ]
  },
  {
    "uid": "TPE1000545",
    "name": "加油站",
    "lon": 121.503671,
    "lat": 25.071312,
    "routes": [
      "TPE10746",
      "TPE10142",
      "TPE10733",
      "TPE11073",
      "TPE17740"
    ]
  },
  {
    "uid": "TPE1000546",
    "name": "寶橋中興路口",
    "lon": 121.546814,
    "lat": 24.975897,
    "routes": [
      "TPE10746",
      "TPE11073"
    ]
  },
  {
    "uid": "TPE1000547",
    "name": "滬江中學",
    "lon": 121.540043,
    "lat": 24.991026,
    "routes": [
      "TPE10326",
      "TPE10328",
      "TPE10332",
      "TPE10333",
      "TPE10334",
      "TPE10746",
      "TPE18228"
    ]
  },
  {
    "uid": "TPE1000548",
    "name": "捷運景美站",
    "lon": 121.540834,
    "lat": 24.993002,
    "routes": [
      "TPE10326",
      "TPE10328",
      "TPE10332",
      "TPE10333",
      "TPE10334",
      "TPE10746",
      "TPE18228",
      "TPE10752",
      "TPE16439"
    ]
  },
  {
    "uid": "TPE1000552",
    "name": "寶高產業園區",
    "lon": 121.550698,
    "lat": 24.978366,
    "routes": [
      "TPE10142",
      "TPE10733",
      "TPE10746",
      "TPE11073"
    ]
  },
  {
    "uid": "TPE1000553",
    "name": "木新市場",
    "lon": 121.558317,
    "lat": 24.981082,
    "routes": [
      "TPE10142",
      "TPE10734",
      "TPE10735",
      "TPE10736",
      "TPE10746",
      "TPE10748",
      "TPE11073",
      "TPE11742",
      "TPE18057",
      "TPE19776"
    ]
  },
  {
    "uid": "TPE1000554",
    "name": "力行國小",
    "lon": 121.560059,
    "lat": 24.981557,
    "routes": [
      "TPE10142",
      "TPE10734",
      "TPE10735",
      "TPE10736",
      "TPE10746",
      "TPE10748",
      "TPE11073",
      "TPE11742",
      "TPE18057",
      "TPE19776"
    ]
  },
  {
    "uid": "TPE1000555",
    "name": "涼州重慶路口",
    "lon": 121.513279,
    "lat": 25.060763,
    "routes": [
      "TPE10882",
      "TPE11871",
      "TPE10893",
      "TPE10262",
      "TPE10452",
      "TPE10473",
      "TPE11124",
      "TPE11125",
      "TPE11165",
      "TPE11252",
      "TPE11853",
      "TPE11881",
      "TPE15322",
      "TPE15333",
      "TPE15532",
      "TPE15554",
      "TPE16707",
      "TPE10847"
    ]
  },
  {
    "uid": "TPE1000557",
    "name": "遠東世紀",
    "lon": 121.551066,
    "lat": 24.983425,
    "routes": [
      "TPE10734",
      "TPE10735",
      "TPE10736"
    ]
  },
  {
    "uid": "TPE1000558",
    "name": "全球工業總部",
    "lon": 121.551537,
    "lat": 24.980281,
    "routes": [
      "TPE10734",
      "TPE10735",
      "TPE10736"
    ]
  },
  {
    "uid": "TPE1000559",
    "name": "水源路口",
    "lon": 121.524956,
    "lat": 25.021449,
    "routes": [
      "TPE10735",
      "TPE10782",
      "TPE11041",
      "TPE10736",
      "TPE16747"
    ]
  },
  {
    "uid": "TPE1000570",
    "name": "捷運頭前庄站(思源路)",
    "lon": 121.459856,
    "lat": 25.040005,
    "routes": [
      "TPE10942"
    ]
  },
  {
    "uid": "TPE10006",
    "name": "連城錦和路口(暫時裁撤)",
    "lon": 121.490293,
    "lat": 24.996357,
    "routes": [
      "TPE15561",
      "TPE15562",
      "TPE15563",
      "TPE15685",
      "TPE15687",
      "TPE15694",
      "TPE15698",
      "TPE16111",
      "TPE17390",
      "TPE17512",
      "TPE19108"
    ]
  },
  {
    "uid": "TPE1000600",
    "name": "玉成公園(成福)",
    "lon": 121.587059,
    "lat": 25.042555,
    "routes": [
      "TPE10942"
    ]
  },
  {
    "uid": "TPE1000601",
    "name": "聯合醫院忠孝院區(同德)",
    "lon": 121.586366,
    "lat": 25.046206,
    "routes": [
      "TPE10942",
      "TPE11066"
    ]
  },
  {
    "uid": "TPE1000604",
    "name": "捷運頭前庄站",
    "lon": 121.462194,
    "lat": 25.039985,
    "routes": [
      "TPE10282",
      "TPE10283",
      "TPE10472",
      "TPE10942",
      "TPE11421",
      "TPE16706"
    ]
  },
  {
    "uid": "TPE1000605",
    "name": "捷運新莊站(地政事務所)",
    "lon": 121.452076,
    "lat": 25.036791,
    "routes": [
      "TPE10942"
    ]
  },
  {
    "uid": "TPE1000606",
    "name": "中美市場",
    "lon": 121.45272,
    "lat": 25.042016,
    "routes": [
      "TPE10942"
    ]
  },
  {
    "uid": "TPE1000608",
    "name": "永嶺",
    "lon": 121.545298,
    "lat": 25.106907,
    "routes": [
      "TPE10272",
      "TPE10273",
      "TPE10472",
      "TPE10821",
      "TPE10823",
      "TPE10824",
      "TPE11206",
      "TPE11207",
      "TPE11208",
      "TPE11209",
      "TPE11813",
      "TPE15359",
      "TPE16746"
    ]
  },
  {
    "uid": "TPE1000609",
    "name": "永福(林語堂故居)",
    "lon": 121.547087,
    "lat": 25.109386,
    "routes": [
      "TPE10272",
      "TPE10273",
      "TPE10472",
      "TPE10821",
      "TPE10823",
      "TPE10824",
      "TPE11206",
      "TPE11207",
      "TPE11208",
      "TPE11209",
      "TPE11813",
      "TPE15359",
      "TPE16746"
    ]
  },
  {
    "uid": "TPE1000611",
    "name": "新安",
    "lon": 121.55016,
    "lat": 25.124914,
    "routes": [
      "TPE10272",
      "TPE10273",
      "TPE10472",
      "TPE10821",
      "TPE10823",
      "TPE10824",
      "TPE11206",
      "TPE11207",
      "TPE11813",
      "TPE15359",
      "TPE16746"
    ]
  },
  {
    "uid": "TPE1000612",
    "name": "下竹林",
    "lon": 121.547581,
    "lat": 25.129625,
    "routes": [
      "TPE10272",
      "TPE10273",
      "TPE10472",
      "TPE10821",
      "TPE10823",
      "TPE10824",
      "TPE11206",
      "TPE11207",
      "TPE11813",
      "TPE15359",
      "TPE16746"
    ]
  },
  {
    "uid": "TPE1000613",
    "name": "磺溪底",
    "lon": 121.549639,
    "lat": 25.14077,
    "routes": [
      "TPE10472",
      "TPE10821",
      "TPE10823",
      "TPE10824",
      "TPE11813",
      "TPE15359",
      "TPE10272",
      "TPE10273"
    ]
  },
  {
    "uid": "TPE1000614",
    "name": "福音",
    "lon": 121.550435,
    "lat": 25.114175,
    "routes": [
      "TPE10272",
      "TPE10273",
      "TPE10472",
      "TPE10821",
      "TPE10823",
      "TPE10824",
      "TPE11206",
      "TPE11207",
      "TPE11209",
      "TPE11813",
      "TPE15359",
      "TPE16746"
    ]
  },
  {
    "uid": "TPE1000615",
    "name": "華興中學",
    "lon": 121.538242,
    "lat": 25.104107,
    "routes": [
      "TPE10272",
      "TPE10273",
      "TPE10472",
      "TPE10821",
      "TPE10823",
      "TPE10824",
      "TPE11206",
      "TPE11207",
      "TPE11208",
      "TPE11209",
      "TPE11813",
      "TPE15359",
      "TPE16746"
    ]
  },
  {
    "uid": "TPE1000616",
    "name": "芝蘭新村",
    "lon": 121.537101,
    "lat": 25.107116,
    "routes": [
      "TPE10272",
      "TPE10273",
      "TPE10472",
      "TPE10821",
      "TPE10823",
      "TPE10824",
      "TPE11206",
      "TPE11207",
      "TPE11208",
      "TPE11209",
      "TPE11813",
      "TPE15359",
      "TPE16746"
    ]
  },
  {
    "uid": "TPE1000618",
    "name": "士林官邸(中正)",
    "lon": 121.531418,
    "lat": 25.096412,
    "routes": [
      "TPE10272",
      "TPE10273",
      "TPE10472",
      "TPE10821",
      "TPE10823",
      "TPE10824",
      "TPE11206",
      "TPE11207",
      "TPE11208",
      "TPE11209",
      "TPE11211",
      "TPE11213",
      "TPE11217",
      "TPE11252",
      "TPE11253",
      "TPE15334",
      "TPE15335",
      "TPE15372",
      "TPE15532",
      "TPE15551",
      "TPE15553",
      "TPE15554",
      "TPE15679",
      "TPE15680",
      "TPE15681",
      "TPE16184",
      "TPE16746",
      "TPE17333",
      "TPE17740"
    ]
  },
  {
    "uid": "TPE1000619",
    "name": "岩山里",
    "lon": 121.537644,
    "lat": 25.101829,
    "routes": [
      "TPE10272",
      "TPE10273",
      "TPE10472",
      "TPE10821",
      "TPE10823",
      "TPE10824",
      "TPE11206",
      "TPE11207",
      "TPE11208",
      "TPE11209",
      "TPE11813",
      "TPE15359",
      "TPE16746"
    ]
  },
  {
    "uid": "TPE1000620",
    "name": "陽明教養院",
    "lon": 121.548508,
    "lat": 25.110464,
    "routes": [
      "TPE10272",
      "TPE10273",
      "TPE10472",
      "TPE10821",
      "TPE10823",
      "TPE10824",
      "TPE11206",
      "TPE11207",
      "TPE11208",
      "TPE11209",
      "TPE11813",
      "TPE15359",
      "TPE16746"
    ]
  },
  {
    "uid": "TPE1000621",
    "name": "明德新村",
    "lon": 121.553012,
    "lat": 25.12018,
    "routes": [
      "TPE10272",
      "TPE10273",
      "TPE10472",
      "TPE10821",
      "TPE10823",
      "TPE10824",
      "TPE11206",
      "TPE11207",
      "TPE11813",
      "TPE15359",
      "TPE16746"
    ]
  },
  {
    "uid": "TPE1000622",
    "name": "白雲山莊",
    "lon": 121.55158,
    "lat": 25.122823,
    "routes": [
      "TPE10272",
      "TPE10273",
      "TPE10472",
      "TPE10821",
      "TPE10823",
      "TPE10824",
      "TPE11206",
      "TPE11207",
      "TPE11813",
      "TPE15359",
      "TPE16746"
    ]
  },
  {
    "uid": "TPE1000628",
    "name": "一女中(重慶)",
    "lon": 121.512761,
    "lat": 25.037508,
    "routes": [
      "TPE10961",
      "TPE10962"
    ]
  },
  {
    "uid": "TPE1000630",
    "name": "塔悠路",
    "lon": 121.56886,
    "lat": 25.060955,
    "routes": [
      "TPE10961",
      "TPE10962"
    ]
  },
  {
    "uid": "TPE1000631",
    "name": "撫遠抽水站",
    "lon": 121.568584,
    "lat": 25.062563,
    "routes": [
      "TPE10961",
      "TPE10962"
    ]
  },
  {
    "uid": "TPE1000632",
    "name": "莊敬里",
    "lon": 121.56565,
    "lat": 25.065168,
    "routes": [
      "TPE10292",
      "TPE10848",
      "TPE10961",
      "TPE10962",
      "TPE16111",
      "TPE19108",
      "TPE19618"
    ]
  },
  {
    "uid": "TPE1000634",
    "name": "廣福國小",
    "lon": 121.454398,
    "lat": 24.986807,
    "routes": [
      "TPE10961"
    ]
  },
  {
    "uid": "TPE1000636",
    "name": "富貴新村",
    "lon": 121.480675,
    "lat": 25.028821,
    "routes": [
      "TPE10932"
    ]
  },
  {
    "uid": "TPE1000637",
    "name": "江翠國小",
    "lon": 121.47544,
    "lat": 25.032286,
    "routes": [
      "TPE10932"
    ]
  },
  {
    "uid": "TPE1000643",
    "name": "成福宮",
    "lon": 121.590106,
    "lat": 25.038729,
    "routes": [
      "TPE10292",
      "TPE10845",
      "TPE10846",
      "TPE10932",
      "TPE10971",
      "TPE11066",
      "TPE17869"
    ]
  },
  {
    "uid": "TPE1000650",
    "name": "樓厝一",
    "lon": 121.477402,
    "lat": 25.09001,
    "routes": [
      "TPE10415",
      "TPE10421"
    ]
  },
  {
    "uid": "TPE1000651",
    "name": "捷運菜寮站",
    "lon": 121.49062,
    "lat": 25.059276,
    "routes": [
      "TPE10417",
      "TPE10472",
      "TPE10891",
      "TPE11241",
      "TPE11246",
      "TPE15521",
      "TPE15581",
      "TPE16158",
      "TPE10415"
    ]
  },
  {
    "uid": "TPE1000653",
    "name": "重慶忠孝路口",
    "lon": 121.462847,
    "lat": 25.001581,
    "routes": [
      "TPE10481",
      "TPE10482",
      "TPE11171",
      "TPE16131"
    ]
  },
  {
    "uid": "TPE1000656",
    "name": "忠孝路",
    "lon": 121.47254,
    "lat": 25.035488,
    "routes": [
      "TPE10481",
      "TPE10482",
      "TPE11171",
      "TPE16131",
      "TPE10416",
      "TPE10893"
    ]
  },
  {
    "uid": "TPE1000661",
    "name": "南雅站",
    "lon": 121.450999,
    "lat": 24.99407,
    "routes": [
      "TPE10132",
      "TPE10481",
      "TPE11171",
      "TPE16131"
    ]
  },
  {
    "uid": "TPE1000662",
    "name": "土城站",
    "lon": 121.450323,
    "lat": 24.979743,
    "routes": [
      "TPE10481",
      "TPE16131",
      "TPE11171"
    ]
  },
  {
    "uid": "TPE1000666",
    "name": "中影八德大樓",
    "lon": 121.540872,
    "lat": 25.046861,
    "routes": [
      "TPE11851",
      "TPE10181",
      "TPE10792",
      "TPE10942",
      "TPE11871",
      "TPE15314"
    ]
  },
  {
    "uid": "TPE1000667",
    "name": "松山商職(松山)",
    "lon": 121.57844,
    "lat": 25.036472,
    "routes": [
      "TPE10874",
      "TPE11411",
      "TPE11821",
      "TPE10873"
    ]
  },
  {
    "uid": "TPE1000669",
    "name": "景福街",
    "lon": 121.536305,
    "lat": 24.995599,
    "routes": [
      "TPE10751",
      "TPE10752",
      "TPE10754",
      "TPE16439",
      "TPE16747"
    ]
  },
  {
    "uid": "TPE1000672",
    "name": "吉林國小",
    "lon": 121.528811,
    "lat": 25.05362,
    "routes": [
      "TPE15391",
      "TPE15711",
      "TPE11815"
    ]
  },
  {
    "uid": "TPE1000675",
    "name": "中山北路口(德行)",
    "lon": 121.523846,
    "lat": 25.105982,
    "routes": [
      "TPE15546",
      "TPE15581",
      "TPE17908",
      "TPE17929",
      "TPE19779"
    ]
  },
  {
    "uid": "TPE1000677",
    "name": "東湖國中",
    "lon": 121.619405,
    "lat": 25.072759,
    "routes": [
      "TPE10763",
      "TPE10765",
      "TPE10767",
      "TPE10851",
      "TPE10853",
      "TPE10856",
      "TPE10861",
      "TPE11051",
      "TPE11062",
      "TPE16153",
      "TPE16506"
    ]
  },
  {
    "uid": "TPE1000680",
    "name": "萬芳社區(和平)",
    "lon": 121.57192,
    "lat": 25.002766,
    "routes": [
      "TPE10741",
      "TPE10742",
      "TPE11021",
      "TPE15162",
      "TPE15172",
      "TPE17020"
    ]
  },
  {
    "uid": "TPE1000688",
    "name": "消防局(松仁)",
    "lon": 121.568413,
    "lat": 25.039358,
    "routes": [
      "TPE10292",
      "TPE10831",
      "TPE10883",
      "TPE10142",
      "TPE10331",
      "TPE10334",
      "TPE10742",
      "TPE10754",
      "TPE10856",
      "TPE11066",
      "TPE11152",
      "TPE11221",
      "TPE11742",
      "TPE15173",
      "TPE15730",
      "TPE16568",
      "TPE17944",
      "TPE18228",
      "TPE19408"
    ]
  },
  {
    "uid": "TPE1000698",
    "name": "捷運西湖站",
    "lon": 121.56612,
    "lat": 25.082304,
    "routes": [
      "TPE10432",
      "TPE10765",
      "TPE10842",
      "TPE10846",
      "TPE10851",
      "TPE10853",
      "TPE15141",
      "TPE15312",
      "TPE15332",
      "TPE15334",
      "TPE15335",
      "TPE15352",
      "TPE15353",
      "TPE15358",
      "TPE15359",
      "TPE15361",
      "TPE17390",
      "TPE18044",
      "TPE19721",
      "TPE15561",
      "TPE15684"
    ]
  },
  {
    "uid": "TPE10007",
    "name": "連城中正路口",
    "lon": 121.484323,
    "lat": 24.996212,
    "routes": [
      "TPE15561",
      "TPE15562",
      "TPE15563",
      "TPE15685",
      "TPE15687",
      "TPE15694",
      "TPE15698",
      "TPE16111",
      "TPE17390",
      "TPE17512",
      "TPE19108"
    ]
  },
  {
    "uid": "TPE1000706",
    "name": "光華新村(安康路)",
    "lon": 121.518093,
    "lat": 24.96404,
    "routes": [
      "TPE10142",
      "TPE10326",
      "TPE10328",
      "TPE15183",
      "TPE15676"
    ]
  },
  {
    "uid": "TPE1000707",
    "name": "關渡宮",
    "lon": 121.465307,
    "lat": 25.118231,
    "routes": [
      "TPE11121",
      "TPE11122",
      "TPE11123",
      "TPE11124",
      "TPE11125",
      "TPE19717"
    ]
  },
  {
    "uid": "TPE1000710",
    "name": "竹圍國小自強分校",
    "lon": 121.464217,
    "lat": 25.125551,
    "routes": [
      "TPE11122"
    ]
  },
  {
    "uid": "TPE1000732",
    "name": "秀湖",
    "lon": 121.59841,
    "lat": 25.08456,
    "routes": [
      "TPE10422",
      "TPE10431",
      "TPE10851",
      "TPE10861",
      "TPE11058",
      "TPE11221",
      "TPE15312",
      "TPE15332",
      "TPE15334",
      "TPE15335",
      "TPE15353",
      "TPE15358",
      "TPE15359"
    ]
  },
  {
    "uid": "TPE1000737",
    "name": "金龍里",
    "lon": 121.596385,
    "lat": 25.08456,
    "routes": [
      "TPE10431",
      "TPE10851",
      "TPE10861",
      "TPE11058",
      "TPE11221",
      "TPE15312",
      "TPE15332",
      "TPE15334",
      "TPE15335",
      "TPE15353",
      "TPE15358",
      "TPE15359",
      "TPE17952"
    ]
  },
  {
    "uid": "TPE1000743",
    "name": "新光醫院",
    "lon": 121.521383,
    "lat": 25.095599,
    "routes": [
      "TPE16164",
      "TPE11161"
    ]
  },
  {
    "uid": "TPE1000751",
    "name": "興隆路口(辛亥)",
    "lon": 121.555245,
    "lat": 25.002004,
    "routes": [
      "TPE10745",
      "TPE10747",
      "TPE10748",
      "TPE10751",
      "TPE10782",
      "TPE11023",
      "TPE11742",
      "TPE16747",
      "TPE18057"
    ]
  },
  {
    "uid": "TPE1000755",
    "name": "南港高工(重陽)",
    "lon": 121.606468,
    "lat": 25.058097,
    "routes": [
      "TPE10232",
      "TPE10251",
      "TPE15571",
      "TPE16649",
      "TPE19298",
      "TPE10971",
      "TPE16125"
    ]
  },
  {
    "uid": "TPE1000757",
    "name": "溝子口(幸福華興)",
    "lon": 121.552301,
    "lat": 24.988575,
    "routes": [
      "TPE10747",
      "TPE10748",
      "TPE18057",
      "TPE19776"
    ]
  },
  {
    "uid": "TPE1000758",
    "name": "南門",
    "lon": 121.515528,
    "lat": 25.033473,
    "routes": [
      "TPE10282",
      "TPE10283",
      "TPE10748",
      "TPE10861",
      "TPE11212",
      "TPE11861",
      "TPE15521",
      "TPE18057",
      "TPE10862"
    ]
  },
  {
    "uid": "TPE1000764",
    "name": "臺灣警察專科學校",
    "lon": 121.558984,
    "lat": 24.998007,
    "routes": [
      "TPE10711",
      "TPE10733",
      "TPE10735",
      "TPE10742",
      "TPE10743",
      "TPE10745",
      "TPE10749",
      "TPE10751",
      "TPE10791",
      "TPE11023",
      "TPE11742",
      "TPE11763",
      "TPE11811",
      "TPE11813",
      "TPE11815",
      "TPE15161",
      "TPE15164",
      "TPE16747",
      "TPE10736",
      "TPE19776"
    ]
  },
  {
    "uid": "TPE1000766",
    "name": "榮星花園",
    "lon": 121.537019,
    "lat": 25.063646,
    "routes": [
      "TPE11023",
      "TPE15161",
      "TPE16166"
    ]
  },
  {
    "uid": "TPE1000769",
    "name": "捷運萬芳醫院站",
    "lon": 121.557344,
    "lat": 24.999423,
    "routes": [
      "TPE10711",
      "TPE10736",
      "TPE10743",
      "TPE10745",
      "TPE10749",
      "TPE10751",
      "TPE10791",
      "TPE11023",
      "TPE11742",
      "TPE11763",
      "TPE15161",
      "TPE15164",
      "TPE16747",
      "TPE19776",
      "TPE10733",
      "TPE10742",
      "TPE11811",
      "TPE11813",
      "TPE11815",
      "TPE10735"
    ]
  },
  {
    "uid": "TPE1000774",
    "name": "慈音山莊",
    "lon": 121.566752,
    "lat": 24.966684,
    "routes": [
      "TPE11073"
    ]
  },
  {
    "uid": "TPE1000775",
    "name": "頭前里",
    "lon": 121.466031,
    "lat": 25.051022,
    "routes": [
      "TPE10221",
      "TPE11411"
    ]
  },
  {
    "uid": "TPE1000777",
    "name": "頭前國小",
    "lon": 121.466285,
    "lat": 25.053078,
    "routes": [
      "TPE10221",
      "TPE11411"
    ]
  },
  {
    "uid": "TPE1000778",
    "name": "化成新北大道路口",
    "lon": 121.464999,
    "lat": 25.059503,
    "routes": [
      "TPE10221",
      "TPE10471",
      "TPE11411"
    ]
  },
  {
    "uid": "TPE1000779",
    "name": "永春高中",
    "lon": 121.579726,
    "lat": 25.033465,
    "routes": [
      "TPE10873",
      "TPE11411",
      "TPE11821"
    ]
  },
  {
    "uid": "TPE1000782",
    "name": "材試所",
    "lon": 121.446473,
    "lat": 25.039299,
    "routes": [
      "TPE10221",
      "TPE10471",
      "TPE11411"
    ]
  },
  {
    "uid": "TPE1000783",
    "name": "新泰國中南站",
    "lon": 121.445741,
    "lat": 25.040481,
    "routes": [
      "TPE10221",
      "TPE10471",
      "TPE11411"
    ]
  },
  {
    "uid": "TPE1000784",
    "name": "新莊棒球場(立功里立德里)",
    "lon": 121.446487,
    "lat": 25.041881,
    "routes": [
      "TPE11411",
      "TPE15581",
      "TPE15677"
    ]
  },
  {
    "uid": "TPE1000785",
    "name": "新莊體育場(立功里)",
    "lon": 121.448046,
    "lat": 25.042557,
    "routes": [
      "TPE11411",
      "TPE15581",
      "TPE15677"
    ]
  },
  {
    "uid": "TPE1000786",
    "name": "新莊田徑場(中和里)",
    "lon": 121.451936,
    "lat": 25.04354,
    "routes": [
      "TPE11411",
      "TPE15581",
      "TPE15677"
    ]
  },
  {
    "uid": "TPE1000788",
    "name": "幸福思源路口",
    "lon": 121.457861,
    "lat": 25.049426,
    "routes": [
      "TPE10221",
      "TPE10423",
      "TPE11411",
      "TPE15677"
    ]
  },
  {
    "uid": "TPE1000790",
    "name": "公地嶺",
    "lon": 121.574428,
    "lat": 25.130889,
    "routes": [
      "TPE10272",
      "TPE10273"
    ]
  },
  {
    "uid": "TPE1000791",
    "name": "鄭厝",
    "lon": 121.57179,
    "lat": 25.137858,
    "routes": [
      "TPE10272",
      "TPE10273"
    ]
  },
  {
    "uid": "TPE1000797",
    "name": "黃昏市場",
    "lon": 121.445119,
    "lat": 25.176777,
    "routes": [
      "TPE15151",
      "TPE16504"
    ]
  },
  {
    "uid": "TPE1000798",
    "name": "安老所",
    "lon": 121.459615,
    "lat": 25.144898,
    "routes": [
      "TPE15151",
      "TPE16504",
      "TPE16707",
      "TPE17740"
    ]
  },
  {
    "uid": "TPE1000799",
    "name": "馬偕醫院",
    "lon": 121.490555,
    "lat": 25.098792,
    "routes": [
      "TPE15151",
      "TPE16504",
      "TPE16707",
      "TPE17740",
      "TPE10261",
      "TPE10293",
      "TPE11242",
      "TPE15142",
      "TPE11245"
    ]
  },
  {
    "uid": "TPE10008",
    "name": "連城路",
    "lon": 121.482995,
    "lat": 24.995782,
    "routes": [
      "TPE15561",
      "TPE15562",
      "TPE15563",
      "TPE15685",
      "TPE15687",
      "TPE15694",
      "TPE15698",
      "TPE17390",
      "TPE17512",
      "TPE10961",
      "TPE16111",
      "TPE19108"
    ]
  },
  {
    "uid": "TPE1000801",
    "name": "板橋國中(435藝文特區)",
    "lon": 121.454305,
    "lat": 25.023172,
    "routes": [
      "TPE16111",
      "TPE16112",
      "TPE19108",
      "TPE19688"
    ]
  },
  {
    "uid": "TPE1000802",
    "name": "自來水博物館(太子學舍)",
    "lon": 121.531338,
    "lat": 25.014349,
    "routes": [
      "TPE15563",
      "TPE16709",
      "TPE17020",
      "TPE17512",
      "TPE10751"
    ]
  },
  {
    "uid": "TPE1000803",
    "name": "飛航服務總臺",
    "lon": 121.551675,
    "lat": 25.07208,
    "routes": [
      "TPE10848"
    ]
  },
  {
    "uid": "TPE1000806",
    "name": "捷運松江南京站",
    "lon": 121.533003,
    "lat": 25.052047,
    "routes": [
      "TPE10328",
      "TPE10332",
      "TPE10842",
      "TPE10848",
      "TPE11245",
      "TPE11813",
      "TPE11831",
      "TPE11871",
      "TPE15161",
      "TPE15314",
      "TPE15362",
      "TPE15546",
      "TPE15561",
      "TPE15562",
      "TPE15657",
      "TPE16184",
      "TPE10232",
      "TPE10251",
      "TPE10473",
      "TPE10783",
      "TPE10844",
      "TPE10872",
      "TPE11152",
      "TPE11165",
      "TPE11246",
      "TPE11853",
      "TPE15162",
      "TPE15512",
      "TPE15513",
      "TPE15515",
      "TPE15516",
      "TPE16111",
      "TPE16158",
      "TPE19108",
      "TPE10864",
      "TPE11861",
      "TPE15391"
    ]
  },
  {
    "uid": "TPE1000807",
    "name": "財政園區",
    "lon": 121.54117,
    "lat": 24.995548,
    "routes": [
      "TPE10326",
      "TPE10328",
      "TPE10332",
      "TPE10333",
      "TPE10334",
      "TPE10712",
      "TPE10735",
      "TPE10742",
      "TPE10746",
      "TPE10752",
      "TPE10848",
      "TPE11764",
      "TPE15191",
      "TPE16439",
      "TPE18228",
      "TPE10736",
      "TPE11221",
      "TPE11833"
    ]
  },
  {
    "uid": "TPE1000811",
    "name": "上塔悠",
    "lon": 121.563349,
    "lat": 25.07065,
    "routes": [
      "TPE10848"
    ]
  },
  {
    "uid": "TPE1000812",
    "name": "下塔悠",
    "lon": 121.55663,
    "lat": 25.07225,
    "routes": [
      "TPE10848"
    ]
  },
  {
    "uid": "TPE1000829",
    "name": "仁愛街",
    "lon": 121.490419,
    "lat": 25.081322,
    "routes": [
      "TPE10441",
      "TPE10442"
    ]
  },
  {
    "uid": "TPE1000830",
    "name": "鶴齡協會",
    "lon": 121.496662,
    "lat": 25.085817,
    "routes": [
      "TPE10441",
      "TPE10442"
    ]
  },
  {
    "uid": "TPE1000832",
    "name": "碧華寺",
    "lon": 121.487429,
    "lat": 25.083385,
    "routes": [
      "TPE10441",
      "TPE10442",
      "TPE11241",
      "TPE11242",
      "TPE11243",
      "TPE15664"
    ]
  },
  {
    "uid": "TPE1000842",
    "name": "新北大道化成路口",
    "lon": 121.464747,
    "lat": 25.06117,
    "routes": [
      "TPE10221",
      "TPE10422",
      "TPE10471",
      "TPE10844",
      "TPE11411",
      "TPE15678",
      "TPE17952"
    ]
  },
  {
    "uid": "TPE1000843",
    "name": "天台廣場",
    "lon": 121.497554,
    "lat": 25.062104,
    "routes": [
      "TPE10221",
      "TPE10422",
      "TPE10452",
      "TPE10472",
      "TPE11246",
      "TPE15521",
      "TPE15522",
      "TPE15581",
      "TPE16158",
      "TPE17952",
      "TPE10417",
      "TPE11241",
      "TPE11243",
      "TPE15664"
    ]
  },
  {
    "uid": "TPE1000846",
    "name": "鳳山街口",
    "lon": 121.413031,
    "lat": 25.024832,
    "routes": [
      "TPE10471"
    ]
  },
  {
    "uid": "TPE1000847",
    "name": "正守公園",
    "lon": 121.528726,
    "lat": 25.048208,
    "routes": [
      "TPE11831",
      "TPE15711",
      "TPE15111",
      "TPE15185"
    ]
  },
  {
    "uid": "TPE1000848",
    "name": "長安林森路口",
    "lon": 121.525758,
    "lat": 25.048867,
    "routes": [
      "TPE11831",
      "TPE15711",
      "TPE15111",
      "TPE15185"
    ]
  },
  {
    "uid": "TPE1000850",
    "name": "華齡街",
    "lon": 121.519452,
    "lat": 25.083031,
    "routes": [
      "TPE11161",
      "TPE15573"
    ]
  },
  {
    "uid": "TPE1000851",
    "name": "指南宮",
    "lon": 121.585437,
    "lat": 24.981213,
    "routes": [
      "TPE11021",
      "TPE15164"
    ]
  },
  {
    "uid": "TPE1000854",
    "name": "新光路口",
    "lon": 121.573882,
    "lat": 24.988085,
    "routes": [
      "TPE10142",
      "TPE10711",
      "TPE10741",
      "TPE10742",
      "TPE10743",
      "TPE10748",
      "TPE10749",
      "TPE11021",
      "TPE11071",
      "TPE11742",
      "TPE11763",
      "TPE15161",
      "TPE15162",
      "TPE15164",
      "TPE16127",
      "TPE17944",
      "TPE18040",
      "TPE18057"
    ]
  },
  {
    "uid": "TPE1000855",
    "name": "指南路",
    "lon": 121.569871,
    "lat": 24.987677,
    "routes": [
      "TPE10711",
      "TPE10741",
      "TPE10742",
      "TPE11021",
      "TPE11071",
      "TPE11763",
      "TPE15162",
      "TPE15164",
      "TPE16127",
      "TPE18040"
    ]
  },
  {
    "uid": "TPE1000858",
    "name": "興德國小",
    "lon": 121.550191,
    "lat": 25.000977,
    "routes": [
      "TPE10711",
      "TPE10733",
      "TPE10735",
      "TPE10742",
      "TPE10743",
      "TPE10782",
      "TPE11763",
      "TPE11811",
      "TPE11813",
      "TPE11815",
      "TPE15161",
      "TPE15164",
      "TPE10736"
    ]
  },
  {
    "uid": "TPE1000864",
    "name": "金泰公園",
    "lon": 121.567301,
    "lat": 25.077857,
    "routes": [
      "TPE10432",
      "TPE11056",
      "TPE15693",
      "TPE19721"
    ]
  },
  {
    "uid": "TPE1000866",
    "name": "鄉長路一段",
    "lon": 121.665111,
    "lat": 25.074085,
    "routes": [
      "TPE15512",
      "TPE15513",
      "TPE15514",
      "TPE15515",
      "TPE15516",
      "TPE15517",
      "TPE15518"
    ]
  },
  {
    "uid": "TPE1000867",
    "name": "建民里一",
    "lon": 121.511923,
    "lat": 25.105314,
    "routes": [
      "TPE16504",
      "TPE16707"
    ]
  },
  {
    "uid": "TPE1000869",
    "name": "摩登家庭社區",
    "lon": 121.665947,
    "lat": 25.071644,
    "routes": [
      "TPE10724",
      "TPE15512",
      "TPE15518",
      "TPE15690",
      "TPE17928"
    ]
  },
  {
    "uid": "TPE1000894",
    "name": "大同分局",
    "lon": 121.514663,
    "lat": 25.06011,
    "routes": [
      "TPE10231",
      "TPE10431",
      "TPE11011",
      "TPE15683"
    ]
  },
  {
    "uid": "TPE1000895",
    "name": "瑞光港墘路口",
    "lon": 121.57182,
    "lat": 25.077782,
    "routes": [
      "TPE10253",
      "TPE10431",
      "TPE10461",
      "TPE10462",
      "TPE11056",
      "TPE11111",
      "TPE15171",
      "TPE15172",
      "TPE15331",
      "TPE15676",
      "TPE15677",
      "TPE15678",
      "TPE15679",
      "TPE15680",
      "TPE15681",
      "TPE15682",
      "TPE15683",
      "TPE15685",
      "TPE15686",
      "TPE15687",
      "TPE15689",
      "TPE15690",
      "TPE15691",
      "TPE15702",
      "TPE16174",
      "TPE17390",
      "TPE17436",
      "TPE17555",
      "TPE17709",
      "TPE18015",
      "TPE19721",
      "TPE15684",
      "TPE15693"
    ]
  },
  {
    "uid": "TPE1000896",
    "name": "仁寶大樓",
    "lon": 121.568377,
    "lat": 25.079346,
    "routes": [
      "TPE10253",
      "TPE10431",
      "TPE10461",
      "TPE10462",
      "TPE11056",
      "TPE11111",
      "TPE15171",
      "TPE15172",
      "TPE15331",
      "TPE15676",
      "TPE15677",
      "TPE15678",
      "TPE15679",
      "TPE15680",
      "TPE15681",
      "TPE15682",
      "TPE15683",
      "TPE15685",
      "TPE15686",
      "TPE15687",
      "TPE15689",
      "TPE15690",
      "TPE15691",
      "TPE15702",
      "TPE16174",
      "TPE17390",
      "TPE17436",
      "TPE17555",
      "TPE17709",
      "TPE18015",
      "TPE19721",
      "TPE15684",
      "TPE15693"
    ]
  },
  {
    "uid": "TPE1000897",
    "name": "瑞光路",
    "lon": 121.577505,
    "lat": 25.074801,
    "routes": [
      "TPE10431",
      "TPE10432",
      "TPE10461",
      "TPE10462",
      "TPE10765",
      "TPE10841",
      "TPE10842",
      "TPE11011",
      "TPE11056",
      "TPE11111",
      "TPE11114",
      "TPE15171",
      "TPE15172",
      "TPE15361",
      "TPE15676",
      "TPE15677",
      "TPE15678",
      "TPE15679",
      "TPE15680",
      "TPE15681",
      "TPE15683",
      "TPE15684",
      "TPE15685",
      "TPE15686",
      "TPE15687",
      "TPE15689",
      "TPE15690",
      "TPE15691",
      "TPE15702",
      "TPE16174",
      "TPE17390",
      "TPE17555",
      "TPE17709",
      "TPE18015",
      "TPE18044",
      "TPE19721",
      "TPE10844",
      "TPE11055",
      "TPE15331",
      "TPE15682",
      "TPE15693",
      "TPE17436"
    ]
  },
  {
    "uid": "TPE1000899",
    "name": "東新國小",
    "lon": 121.603188,
    "lat": 25.057694,
    "routes": [
      "TPE10231",
      "TPE10232",
      "TPE10251",
      "TPE11114",
      "TPE15517",
      "TPE16649",
      "TPE19298"
    ]
  },
  {
    "uid": "TPE10009",
    "name": "員山派出所",
    "lon": 121.481284,
    "lat": 24.997989,
    "routes": [
      "TPE16111",
      "TPE19108"
    ]
  },